full_address,lon,lat,adjusted_price,first_year_payment,yearly_payments,down_payment
"28 Meshaka St, Boston, 2132",-71.1595,42.25838,493975,130191,31396,98795
"9 Braemore Rd #4, Boston, 2135",-71.1525,42.33846,326762,123518,17541,105977
"48 Commercial Wharf #48, Boston, 2110",-71.0502,42.3621,1216925,320732,77347,243385
"1301 Blue Hill Ave, Boston, 2126",-71.0926,42.28133,1059275,279182,67327,211855
"6 Arlington St #9, Boston, 2116",-71.0723,42.35479,7142756,4103521,262306,3841215
"1 Charles St S #902, Boston, 2116",-71.0674,42.35179,1054763,862374,16604,845770
"193 Florence St #3R, Boston, 2131",-71.1213,42.28703,181562,47852,11540,36312
"32 Blaine St, Boston, 2134",-71.1376,42.35618,690437,301772,33544,268228
"620 Walk Hill St, Boston, 2126",-71.0971,42.2804,306958,80901,19510,61391
"47 Beech Glen St, Boston, 2119",-71.0955,42.32464,365738,96394,23246,73148
"1 Aspinwall Rd, Boston, 2124",-71.0718,42.29209,899047,236953,57143,179810
"1 Avery St #31B, Boston, 2111",-71.0625,42.35337,4607159,1214262,292830,921432
"1 Avery St #10D, Boston, 2111",-71.0625,42.35337,1194520,314827,75923,238904
"1 Avery St #10B, Boston, 2111",-71.0625,42.35337,1539952,405870,97879,307991
"201 Washington St, Boston, 2108",-71.058,42.35818,4.45E+08,1.17E+08,28284607,89001467
"38 Nightingale St, Boston, 2124",-71.0824,42.29531,321088,84626,20408,64218
"Alleghany St, Boston, 2119",-71.1049,42.33305,3532567,931043,224529,706514
"1610 Tremont St, Boston, 2120",-71.103,42.33347,1766283,465521,112264,353257
"116 W 1st St, Boston, 2127",-71.0512,42.34234,66853172,17619813,4249178,13370635
"1 Charles St S #12H, Boston, 2116",-71.0674,42.35179,1783202,469981,113340,356641
"1 Charles St S #7B, Boston, 2116",-71.0674,42.35179,2130510,561516,135414,426102
"1 Charles St S #7A, Boston, 2116",-71.0674,42.35179,1393758,367339,88587,278752
"1 Charles St S #1606, Boston, 2116",-71.0674,42.35179,2402870,633300,152726,480574
"1 Charles St S #PH1B, Boston, 2116",-71.0674,42.35179,6367764,1678287,404734,1273553
"1 Charles St S #7G, Boston, 2116",-71.0674,42.35179,1969919,519191,125207,393984
"1 Charles St S #PH1D, Boston, 2116",-71.0674,42.35179,1590530,419199,101093,318106
"1 Charles St S #PH1C, Boston, 2116",-71.0674,42.35179,4148203,1093300,263659,829641
"1 Charles St S #812, Boston, 2116",-71.0674,42.35179,1471525,387834,93529,294305
"651-653 Boylston St #1, Boston, 2116",-71.0782,42.34995,2233541,671956,134775,537181
"1 Courtney Rd, Boston, 2132",-71.1521,42.2944,59562,15698,3785,11913
"1 Dalton St #2701, Boston, 2199",-71.0841,42.34527,6188526,1631047,393341,1237706
"1 Dalton St #3105, Boston, 2199",-71.0841,42.34527,6427251,1989796,382983,1606813
"1 Dalton St #3803, Boston, 2199",-71.0841,42.34527,7639941,2013582,485593,1527989
"1 Dalton St #3901, Boston, 2199",-71.0841,42.34527,12962948,3416513,823923,2592590
"1 Dalton St #4201, Boston, 2199",-71.0841,42.34527,12656995,3335875,804476,2531399
"1 Dalton St #4502, Boston, 2199",-71.0841,42.34527,11019031,2904175,700368,2203807
"1 Dalton St #5601, Boston, 2199",-71.0841,42.34527,16081829,4238524,1022158,3216366
"1 Dalton St #2604, Boston, 2199",-71.0841,42.34527,7761209,1956235,501009,1455226
"1 Dalton St #2605, Boston, 2199",-71.0841,42.34527,7761209,1956235,501009,1455226
"1 Dalton St #2901, Boston, 2115",-71.0841,42.34527,7579306,1997601,481739,1515862
"400 Stuart St #25A, Boston, 2116",-71.0743,42.34885,7882478,2077505,501009,1576496
"1 Dalton St #5001, Boston, 2199",-71.0841,42.34527,8338726,5048919,283932,4764987
"1 Dalton St #5702, Boston, 2115",-71.0841,42.34527,20138024,11365206,757154,10608052
"1 Dalton St #6102, Boston, 2199",-71.0841,42.34527,40502384,10674803,2574326,8100477
"1 Dow Rd, Boston, 2132",-71.1666,42.28042,551356,145316,35044,110272
"1 Ernst St, Boston, 2119",-71.0991,42.31876,713530,188057,45351,142706
"1 Fairfield St, Boston, 2116",-71.0835,42.35201,5956233,1569824,378577,1191247
"1 Fairfield Pl #1, Boston, 2109",-71.0529,42.36543,594644,156724,37795,118929
"1 Fairfield Pl #2, Boston, 2109",-71.0529,42.36543,594644,156724,37795,118929
"1 Fairland St, Boston, 2119",-71.0778,42.32564,848521,223636,53931,169705
"1 Franklin St #5405, Boston, 2110",-71.0592,42.35606,4708484,1457687,280566,1177121
"1 Franklin St #PH3D, Boston, 2110",-71.0592,42.35606,8094699,2133437,514497,1618940
"1 Garden St #4, Boston, 2114",-71.067,42.36106,1005780,265083,63927,201156
"1 Huntington Ave #1001, Boston, 2116",-71.077,42.34936,5699638,1502196,362268,1139928
"1 Huntington Ave #208, Boston, 2116",-71.077,42.34936,2155381,568072,136995,431077
"1 Liberty Sq, Boston, 2109",-71.0536,42.32926,78380233,20657884,4981837,15676047
"1 Louisburg Sq #4, Boston, 2108",-71.0684,42.35805,2412828,635924,153358,482566
"1 Maple St, Boston, 2121",-71.0866,42.30788,385691,101653,24514,77139
"1 Marlborough St #2, Boston, 2116",-71.0821,42.35204,1942912,690928,108054,582874
"150-158 Friend St, Boston, 2114",-71.0605,42.3639,4294159,2250028,176422,2073606
"1 Monument Sq #2, Boston, 2129",-71.0604,42.37533,3297678,869135,209599,659536
"1 Mount Vernon St, Boston, 2125",-71.0607,42.32291,3260411,709244,220183,489061
"1-1A Mystic Ave, Boston, 2129",-71.0765,42.38613,1429495,376757,90858,285899
"3 Sherman St, Boston, 2129",-71.0765,42.38661,8934349,2354736,567866,1786870
"655-655A Mystic Ave, Boston, 2129",-71.0763,42.38596,3931113,1036083,249860,786223
"3 Mystic Ave, Boston, 2129",-71.0765,42.38613,1429495,376757,90858,285899
"477-489 Cambridge St, Boston, 2134",-71.1368,42.35392,5703615,1503244,362521,1140723
"1 Otis Pl, Boston, 2108",-71.0719,42.35722,7763114,2046045,493422,1552623
"1 Parrott St, Boston, 2136",-71.1251,42.25913,417627,116705,33180,83525
"8 Edson Ter, Boston, 2136",-71.1381,42.24246,613492,161692,38993,122699
"350 Arborway, Boston, 2130",-71.1181,42.30366,963265,253877,61224,192653
"9 Hawthorne Pl #4P, Boston, 2114",-71.0664,42.36348,415994,109639,26440,83199
"1 Stoughton Street Pl, Boston, 2125",-71.0633,42.31623,494970,153236,29493,123743
"22-26 Warren St, Boston, 2119",-71.0831,42.33009,1397704,368378,88837,279541
"28 Warren St, Boston, 2119",-71.0832,42.32974,1508558,397595,95883,301712
"10 Winthrop Ln, Boston, 2110",-71.058,42.35502,29756991,7842749,1891350,5951399
"1 Worcester Sq #2, Boston, 2118",-71.0757,42.33748,811136,811135,0,811135
"1 Appian Pl, Boston, 2128",-71.0644,42.37965,642818,169421,40857,128564
"1-3 Glenley Ter, Boston, 2135",-71.1698,42.34843,913709,283184,54418,228766
"1-3 Higgins St, Boston, 2134",-71.1358,42.35339,1067079,502552,48722,453830
"1-9 Henshaw St, Boston, 2135",-71.1495,42.34939,962178,348492,52965,295527
"10 Alvan Ter, Boston, 2125",-71.0624,42.317,1071180,282320,68084,214236
"10 Bickford Ave, Boston, 2120",-71.1024,42.32641,1098256,289456,69804,219652
"10-12 Breed St, Boston, 2128",-71.0066,42.38704,888221,109648,67196,42452
"10 Bremen St, Boston, 2128",-71.039,42.36855,1068066,330660,63643,267017
"10 Brinton St #1, Boston, 2119",-71.0925,42.32028,1378390,426731,82134,344597
"10 Brinton St #2, Boston, 2119",-71.0925,42.32028,1378390,426731,82134,344597
"10 Carmel St, Boston, 2120",-71.1,42.33238,1265202,414138,73452,340686
"635 Dorchester Ave, Boston, 2127",-71.057,42.32828,2546647,760501,154156,606345
"10 Centre Ave, Boston, 2124",-71.0624,42.29288,1709891,412144,112004,300140
"10 Cherokee St, Boston, 2120",-71.1005,42.33003,1862690,490930,118392,372538
"10 Cherokee St, Boston, 2120",-71.1005,42.33003,838175,323787,44395,279392
"10 Claremont Park, Boston, 2118",-71.0826,42.3421,4288487,1130273,272575,857698
"10 Concord Sq #3, Boston, 2118",-71.0793,42.34176,1686419,444472,107188,337284
"10 Crescent Ave, Boston, 2125",-71.056,42.31892,572267,150827,36373,114454
"10 Derry Rd, Boston, 2136",-71.114,42.26654,424441,47676,32517,15159
"10 Eastman St, Boston, 2125",-71.0643,42.31972,1236708,325946,78604,247342
"10 Edison Grn, Boston, 2125",-71.078,42.28747,1034582,272674,65757,206917
"10 Fairfield St, Boston, 2116",-71.0832,42.35188,3620250,954152,230102,724050
"10 Fairway St, Boston, 2126",-71.094,42.2686,2642047,1172182,126859,1045323
"10 Fox St, Boston, 2122",-71.0627,42.3065,609999,216925,33925,183000
"10 Fox St, Boston, 2122",-71.0627,42.3065,648628,170952,41226,129726
"10 Haynes St, Boston, 2128",-71.0386,42.36706,738572,194658,46943,147715
"10 Holborn St #1, Boston, 2121",-71.0819,42.31499,226627,59730,14404,45326
"38 Haverford St, Boston, 2130",-71.1022,42.31301,272925,71932,17347,54585
"30 Longfellow St, Boston, 2122",-71.0668,42.30258,99435,26207,6320,19887
"10 Lamson Ct, Boston, 2128",-71.0327,42.36634,1158233,305264,73617,231647
"10 Lamson Ct, Boston, 2128",-71.0327,42.36634,815564,214950,51837,163113
"10 Lewiston St, Boston, 2136",-71.1123,42.26685,199716,52637,12693,39944
"3702 Washington St, Boston, 2130",-71.1143,42.29944,869610,229194,55272,173922
"10 Mcbride St, Boston, 2130",-71.1147,42.30604,128435,33850,8163,25687
"11 Montvale St, Boston, 2131",-71.1458,42.28553,1191246,313965,75715,238250
"10 Moreland St, Boston, 2119",-71.0826,42.3259,295696,77934,18794,59140
"10 Mount Pleasant Ave, Boston, 2119",-71.0793,42.32819,695404,183280,44199,139081
"6-10 Malcolm X Blvd, Boston, 2119",-71.13,42.30298,15177780,6898130,714590,6183540
"10 National St, Boston, 2127",-71.0466,42.33486,716347,221772,42685,179087
"10 Newmarket Sq, Boston, 2118",-71.0648,42.33078,2440271,643157,155103,488054
"10 Otis Pl #4B, Boston, 2108",-71.0719,42.35712,2122205,559328,134887,424441
"107 Warren St, Boston, 2129",-71.0631,42.37482,1608182,423852,102215,321637
"10 Radcliffe Rd #6, Boston, 2134",-71.1337,42.35086,638588,168306,40588,127718
"10 Rockway St, Boston, 2126",-71.0946,42.27066,198686,52366,12628,39738
"10 Roxbury St, Boston, 2119",-71.0864,42.32965,371224,97839,23594,74245
"4 Kearsarge Ave #1, Boston, 2119",-71.0829,42.32754,172354,45425,10954,34471
"4 Kearsarge Ave #2, Boston, 2119",-71.0829,42.32754,172354,45425,10954,34471
"10 Rutland Sq, Boston, 2118",-71.0779,42.34126,2448311,645277,155614,489663
"10-12 Spaulding St, Boston, 2122",-71.0542,42.29247,323980,85388,20592,64796
"31 Edison Grn, Boston, 2125",-71.078,42.28669,609868,160737,38763,121974
"10 Sutton St, Boston, 2126",-71.0891,42.28195,798238,210383,50735,159648
"14 Taber St, Boston, 2119",-71.083,42.33018,51499,13573,3273,10300
"14 Taber St, Boston, 2119",-71.083,42.33018,2425378,639232,154156,485076
"24 Temple Pl, Boston, 2111",-71.0619,42.3552,44006964,8691265,3047988,5643277
"10 Wadsworth St, Boston, 2134",-71.1264,42.3552,577959,205531,32143,173388
"10 Wellington St, Boston, 2118",-71.0814,42.34113,2866914,1624966,107188,1517778
"10-12 Wiget St, Boston, 2113",-71.0564,42.36409,3985477,1050412,253316,797096
"1 Hartford Ter, Boston, 2125",-71.0735,42.31777,159729,42098,10152,31946
"10 Winthrop St, Boston, 2128",-71.0396,42.36996,106383,28038,6761,21277
"10 Arlington St, Boston, 2116",-71.07,42.35063,28527103,6205568,1926502,4279066
"12 Ellis St #2, Boston, 2136",-71.1312,42.24919,91744,24180,5831,18349
"10-12 Hunnewell Ave, Boston, 2135",-71.1693,42.35194,1316531,346985,83678,263307
"10-12 Johnson Ter, Boston, 2124",-71.0801,42.288,273927,72196,17410,54786
"51 Province St, Boston, 2108",-71.0602,42.3569,1583859,417441,100669,316772
"10-18 Brainerd Rd, Boston, 2134",-71.1304,42.34895,15556219,4099995,988751,3111244
"10-12 Julian St, Boston, 2125",-71.0773,42.31939,202372,59069,12367,46702
"18 Julian St, Boston, 2125",-71.0769,42.31941,202372,59069,12367,46702
"10 Channel Center St, Boston, 2210",-71.0516,42.34523,1.29E+08,33884256,8171497,25712759
"443 Poplar St, Boston, 2131",-71.127,42.27523,312931,82476,19889,62587
"100 Beacon St #5B, Boston, 2116",-71.073,42.35531,3485267,918577,221523,697054
"100 Belvidere St #10B, Boston, 2116",-71.0839,42.34605,7154865,1885735,454762,1430973
"98-100 Condor St, Boston, 2128",-71.0365,42.38268,2694226,710090,171244,538846
"358 Dorchester St #1, Boston, 2127",-71.0551,42.33043,96339,25391,6123,19268
"100 H St, Boston, 2127",-71.0414,42.33431,1641448,277375,117728,159647
"100 Hackensack Rd, Boston, 2467",-71.1434,42.29931,613917,218317,34142,184175
"100 Hallet St, Boston, 2124",-71.0475,42.28073,1218278,207071,87274,119797
"100 Intervale St, Boston, 2121",-71.077,42.31047,766807,202100,48738,153362
"100 Leo M Birmingham Pkwy, Boston, 2135",-71.15,42.35829,1704646,449277,108347,340930
"100-110 Lincoln St, Boston, 2135",-71.1424,42.35827,6591878,1737354,418978,1318376
"40-42 Symphony Rd, Boston, 2115",-71.0884,42.34285,6486110,2096986,378811,1718175
"100 Meadow Rd, Boston, 2136",-71.1287,42.23214,11892150,3134293,755863,2378430
"100 Northern Ave, Boston, 2210",-71.0438,42.35109,5.67E+08,5.66E+08,25182,5.66E+08
"100 Pierce St, Boston, 2136",-71.1165,42.25787,333489,87894,21196,66698
"100 Pleasant St, Boston, 2125",-71.0589,42.31219,676158,178208,42976,135232
"100 South St #1, Boston, 2111",-71.0572,42.351,603239,158989,38341,120648
"185 Devonshire St #503, Boston, 2110",-71.0573,42.35602,830455,218874,52783,166091
"100 Summer St, Boston, 2110",-71.0577,42.35362,9.77E+08,4.53E+08,45283534,4.07E+08
"100 Beacon St #PHB, Boston, 2116",-71.0731,42.3554,12182787,3210894,774336,2436558
"100 Walnut Ave, Boston, 2119",-71.0856,42.32149,55988,14756,3558,11198
"100 Washington St #11, Boston, 2135",-71.1442,42.34435,387155,102038,24607,77431
"100 Washington St #13, Boston, 2135",-71.1439,42.34427,387155,102038,24607,77431
"100 Blue Hill Ave, Boston, 2119",-71.0772,42.32161,460285,121312,29255,92057
"100-102 Princeton St, Boston, 2128",-71.0359,42.37765,836755,220535,53184,167351
"100 Dorchester St #100, Boston, 2127",-71.0494,42.33359,1455226,450519,86713,363806
"104 Dorchester St #C2, Boston, 2127",-71.0457,42.33534,1455226,450519,86713,363806
"100-110 Lincoln St, Boston, 2135",-71.1424,42.35827,3931113,2227541,147029,2080512
"1000 Washington St, Boston, 2124",-71.0695,42.27739,97965610,36611613,5295273,31316340
"321 Harrison Ave, Boston, 2118",-71.0637,42.34555,1.45E+08,63091161,7051251,56039910
"101 Beacon St, Boston, 2116",-71.0728,42.35529,10123113,2307318,674557,1632761
"99-105 Broad St #4D, Boston, 2110",-71.0526,42.35737,748044,252010,42811,209199
"101 Falcon St, Boston, 2128",-71.0353,42.38188,546396,144008,34728,109280
"101 Geneva Ave, Boston, 2121",-71.0788,42.30632,431048,61121,31927,29194
"101 Milton Ave, Boston, 2136",-71.1117,42.25081,198686,52366,12628,39738
"101 Prince St #3, Boston, 2113",-71.0563,42.36587,776797,204733,49373,155360
"101 Saratoga St, Boston, 2128",-71.036,42.37666,1573992,414841,100042,314799
"152-156 Marion St, Boston, 2128",-71.036,42.37645,1573992,414841,100042,314799
"101-103 Summer St, Boston, 2110",-71.0578,42.35349,16065036,6420250,832411,5587839
"101-111 Summer St, Boston, 2110",-71.0576,42.35345,45354570,11953644,2882730,9070914
"343 Commercial St #101, Boston, 2109",-71.0511,42.3661,986253,259937,62686,197251
"101-107 Hampden St, Boston, 2119",-71.075,42.32978,2262656,249197,173775,75422
"1012-1016 Bennington St, Boston, 2128",-71.0058,42.38708,2810700,740787,178647,562140
"99-R Providence St, Boston, 2136",-71.1227,42.26482,1502139,450012,90805,359207
"40 Battery St #102, Boston, 2109",-71.0514,42.3665,1893089,504497,119845,384652
"102 Chandler St, Boston, 2116",-71.0731,42.34629,6767775,1783713,430158,1353555
"102 Charles St #102, Boston, 2114",-71.0709,42.35882,1413633,885297,45599,839698
"3 Webster Ave, Boston, 2128",-71.0355,42.36643,763703,201281,48540,152741
"102 Chelsea St, Boston, 2128",-71.0359,42.37248,621647,64647,48072,16575
"102 Commercial St #3, Boston, 2109",-71.0528,42.3619,889175,234350,56515,177835
"476 E 3rd St #1, Boston, 2127",-71.0407,42.3365,709303,186944,45083,141861
"10 Sydney St, Boston, 2125",-71.0537,42.31191,1394658,431768,83103,348665
"102-110 Savin Hill Ave, Boston, 2125",-71.0541,42.31195,1091700,369011,62372,306639
"1021 Tremont St, Boston, 2120",-71.0852,42.3368,773178,203779,49143,154636
"1023-1025 Tremont St, Boston, 2120",-71.0852,42.33678,3006946,792511,191121,601390
"19-21 Essex St, Boston, 2111",-71.062,42.35235,3360461,885683,213590,672093
"34-42 Warren St, Boston, 2129",-71.0615,42.37341,6848765,1805059,435306,1369753
"4 Charlesgate E #401, Boston, 2215",-71.0915,42.34985,1235977,325754,78558,247196
"1027-1029 Tremont St, Boston, 2120",-71.0853,42.33672,1735611,581705,99590,482115
"1027-1029 Tremont St, Boston, 2120",-71.0853,42.33672,1590961,565769,88481,477288
"103-111 Arch St, Boston, 2110",-71.0581,42.35554,2916762,768741,185388,583353
"103-105 Clayton St, Boston, 2122",-71.056,42.30106,1606503,423410,102109,321301
"295 Freeport St, Boston, 2122",-71.0513,42.30188,3396141,895087,215858,679229
"103 Marlborough St #8, Boston, 2116",-71.0767,42.35349,532241,140278,33829,106449
"103 Orleans St, Boston, 2128",-71.0367,42.36936,551219,145279,35035,110244
"103 Porter St #1, Boston, 2128",-71.0362,42.37308,950903,250620,60439,190181
"103 Porter St #2, Boston, 2128",-71.0362,42.37308,950903,250620,60439,190181
"1 Prescott St #103, Boston, 2128",-71.0633,42.37399,145516,38352,9248,29104
"103 Russell St, Boston, 2129",-71.0683,42.38082,508327,133975,32309,101666
"103 Terrace St, Boston, 2120",-71.0982,42.32881,805771,212369,51214,161155
"103 Warren Ave, Boston, 2116",-71.0737,42.3446,2978116,784912,189288,595624
"103 Welles Ave #2L, Boston, 2124",-71.0659,42.28936,192458,22286,14687,7599
"103 Winthrop St, Boston, 2119",-71.0772,42.32397,283862,74815,18042,56773
"61 Braintree St, Boston, 2134",-71.1381,42.35666,4203110,1174558,333936,840622
"1033 Massachusetts Ave, Boston, 2118",-71.0677,42.32749,5282466,1635384,314768,1320616
"1033 Massachusetts Ave, Boston, 2118",-71.0677,42.32749,314315,82840,19977,62863
"1048 Dorchester Ave, Boston, 2125",-71.0566,42.31491,3016875,795127,191752,603375
"104-106 Meridian St, Boston, 2128",-71.0392,42.37247,1584839,417700,100732,316968
"104-106 Meridian St, Boston, 2128",-71.0392,42.37247,711883,220390,42419,177971
"104-108 Warren St, Boston, 2119",-71.083,42.32696,558783,147273,35516,111757
"6 Winthrop St, Boston, 2119",-71.0829,42.32663,558783,147273,35516,111757
"1044 South St #1, Boston, 2131",-71.1427,42.28789,480543,231324,21509,209815
"1047-1049 Blue Hill Ave, Boston, 2124",-71.0901,42.28853,482579,267625,18552,249073
"107 Saratoga St, Boston, 2128",-71.0358,42.3767,1128558,297442,71730,225712
"105 Appleton St, Boston, 2116",-71.0741,42.34541,3941239,1038752,250504,788248
"105 Beacon St #4, Boston, 2116",-71.073,42.35523,739740,194965,47017,147948
"105 Beacon St #9, Boston, 2116",-71.073,42.35523,604249,159255,38405,120850
"105 Bowdoin St, Boston, 2124",-71.0715,42.30283,1294833,341266,82299,258967
"180-182 Franklin St, Boston, 2134",-71.131,42.36178,831136,219053,52826,166227
"105 Homes Ave, Boston, 2122",-71.0657,42.30362,667998,176057,42457,133600
"105 Myrtle St, Boston, 2114",-71.0684,42.35943,3652312,962603,232140,730463
"105 N Washington St, Boston, 2114",-71.0583,42.36553,2360988,195343,186910,8433
"105 Pinckney St, Boston, 2114",-71.0697,42.35892,1664504,438696,105795,332901
"105 Washington St, Boston, 2135",-71.1443,42.34459,5277622,1390969,335444,1055525
"105 W 1st St, Boston, 2127",-71.051,42.34208,31044839,13897840,1479904,12417936
"105 W 1st St, Boston, 2127",-71.051,42.34208,97015124,25569293,6166268,19403025
"70 Marlborough St #9, Boston, 2116",-71.0751,42.35373,1103547,668174,37575,630599
"1050 Hyde Park Ave, Boston, 2136",-71.1213,42.26351,317822,83765,20200,63565
"1050-1058 Dorchester Ave, Boston, 2125",-71.0566,42.31491,1267871,392517,75549,316968
"1051 Adams St, Boston, 2124",-71.062,42.27525,769912,106894,57222,49672
"1052-1054 Hyde Park Ave, Boston, 2136",-71.1214,42.26342,741586,195453,47135,148318
"1057 Saratoga St, Boston, 2128",-71.0047,42.38585,755312,199070,48007,151063
"1059 Saratoga St, Boston, 2128",-71.0046,42.3858,739241,194834,46985,147849
"106 13th St #325, Boston, 2129",-71.0508,42.37687,547681,144347,34810,109537
"106 Bremen St, Boston, 2128",-71.0357,42.37165,927531,244460,58953,185507
"104 Chestnut St, Boston, 2108",-71.0715,42.35657,2928326,771789,186123,585666
"106 Devon St, Boston, 2121",-71.0778,42.30884,234857,61899,14927,46972
"106 Evans Rd #3, Boston, 2135",-71.1418,42.34032,502706,132493,31951,100542
"18 Everett St, Boston, 2128",-71.037,42.3686,349344,92073,22204,69869
"106 Forest Hills St, Boston, 2130",-71.0677,42.37992,1825734,481190,116043,365147
"106 Glenway St, Boston, 2121",-71.0817,42.29976,706047,186086,44876,141210
"108-R Mount Pleasant Ave, Boston, 2119",-71.0756,42.32518,664359,175098,42226,132872
"106 Murdock St, Boston, 2135",-71.1462,42.35348,1046263,275753,66500,209253
"106 Prince St, Boston, 2113",-71.0566,42.36577,2450229,645782,155736,490046
"1 Prescott St #201, Boston, 2128",-71.0633,42.37399,273840,46609,19611,26998
"106 Tyler St, Boston, 2111",-71.0616,42.34825,3816292,1005821,242562,763259
"106-106R Webster St, Boston, 2128",-71.0368,42.36673,2471169,651301,157067,494234
"1061 Saratoga St, Boston, 2128",-71.0045,42.38576,1394592,367559,88640,278919
"1065-1067 Tremont St, Boston, 2120",-71.0863,42.33621,23795,6271,1512,4759
"1069-1071 Washington St, Boston, 2124",-71.07,42.27467,1118265,294729,71076,223653
"107 Homestead St, Boston, 2121",-71.0903,42.31173,352164,98412,27979,70432
"107 Jersey St #20A, Boston, 2215",-71.0972,42.34292,363806,95885,23123,72762
"107 Pinckney St, Boston, 2114",-71.0698,42.35892,1483791,391068,94309,296759
"107 Princeton St, Boston, 2128",-71.0356,42.37764,765128,201657,48631,153026
"107-109 Rossmore Rd, Boston, 2130",-71.1057,42.30365,1270287,142046,97374,44672
"107 Townsend St, Boston, 2121",-71.0904,42.31806,1607047,423553,102143,321410
"107 Warren St, Boston, 2129",-71.0631,42.37482,1732302,456565,110104,346461
"103 Porter St, Boston, 2128",-71.0362,42.37308,28272,7451,1796,5655
"406 K St, Boston, 2127",-71.0371,42.33019,2023704,471270,133985,337285
"1075-1079 Washington St, Boston, 2124",-71.0701,42.27452,2651602,698855,168535,530320
"108 Adams St, Boston, 2122",-71.0613,42.30518,848645,223668,53939,169729
"108 Boston St, Boston, 2125",-71.0587,42.32593,1489058,392456,94644,297812
"108 Bunker Hill St, Boston, 2129",-71.0588,42.37759,2354242,620484,149635,470849
"108 Chelsea St, Boston, 2128",-71.0358,42.37263,225722,59491,14346,45145
"155-173 Border St, Boston, 2128",-71.0404,42.37377,993434,261829,63142,198687
"108-108A Dorchester St, Boston, 2127",-71.0459,42.33527,899946,237189,57200,179989
"972-974 Blue Hill Ave, Boston, 2124",-71.0892,42.29044,1098122,289421,69796,219625
"977 Canterbury St, Boston, 2131",-71.1191,42.27872,603976,159184,38388,120796
"108-116 Richmond St, Boston, 2109",-71.0539,42.36288,7096555,1439207,488268,950939
"149 North St, Boston, 2109",-71.0547,42.36224,1218278,321088,77433,243655
"108-110 George St, Boston, 2119",-71.0719,42.32526,596610,157242,37920,119322
"1084 Boylston St, Boston, 2215",-71.0888,42.34691,2526633,782214,150555,631659
"1088 Saratoga St, Boston, 2128",-71.0052,42.38625,1051201,277055,66814,210241
"348 Newbury St, Boston, 2115",-71.087,42.34833,4122360,1086488,262016,824472
"109 Appleton St, Boston, 2116",-71.0742,42.34537,2788754,735003,177252,557751
"109 Beacon St #4, Boston, 2116",-71.0733,42.35514,921132,243034,58524,184510
"109 Capen St, Boston, 2124",-71.0787,42.28071,1105316,210263,77249,133014
"109 Florida St, Boston, 2124",-71.0587,42.28833,368958,97242,23450,73792
"109 Fuller St, Boston, 2124",-71.0707,42.28229,457401,120552,29072,91480
"109 Harold St, Boston, 2121",-71.0899,42.31736,1106493,291627,70328,221299
"109 Liverpool St, Boston, 2128",-71.0404,42.37267,1271290,335061,80803,254258
"109 Mount Pleasant Ave, Boston, 2119",-71.0771,42.32497,269669,71074,17140,53934
"109 New Haven St, Boston, 2132",-71.1665,42.26528,19645,5177,1248,3929
"1091 Boylston St #1, Boston, 2215",-71.089,42.34706,247261,65168,15715,49453
"1091 Boylston St #32, Boston, 2215",-71.089,42.34706,262628,69218,16692,52526
"1091 Boylston St #35, Boston, 2215",-71.089,42.34706,300427,79181,19095,60086
"1096 Blue Hill Ave #5, Boston, 2124",-71.0903,42.28694,77749,20491,4941,15550
"1096 Blue Hill Ave #2, Boston, 2124",-71.0903,42.28694,80704,22552,6411,16140
"1098-1100 Blue Hill Ave, Boston, 2124",-71.0905,42.28688,1,0,0,0
"1 Charles St S #10C, Boston, 2116",-71.0674,42.35179,2821975,743759,179364,564395
"28-30 Phillips St, Boston, 2114",-71.0677,42.36026,3011855,793804,191433,602371
"7 Navillus Ter, Boston, 2122",-71.0618,42.30979,630961,166296,40103,126193
"11 Anderson St, Boston, 2114",-71.0678,42.36064,1748024,460709,111104,349605
"11 Arborview Rd, Boston, 2130",-71.1317,42.30297,1059409,279217,67335,211882
"11 Atkins St, Boston, 2135",-71.1705,42.35206,1584839,417700,100732,316968
"9-11 Beacon St, Boston, 2108",-71.0619,42.35836,22708976,22708963,1,22708962
"11 Beckler Ave, Boston, 2127",-71.0373,42.33345,804091,211926,51107,160819
"11 Belvidere St, Boston, 2115",-71.0865,42.34627,5705420,1503719,362635,1141084
"11 Brighton St, Boston, 2129",-71.0783,42.38285,617257,162684,39232,123452
"11 Carmel St, Boston, 2120",-71.1002,42.33244,1348345,355369,85700,269669
"11 Concord Sq, Boston, 2118",-71.0785,42.34106,282,74,17,57
"11 Conway St, Boston, 2131",-71.13,42.28815,1091420,287654,69370,218284
"11 Dawes St, Boston, 2125",-71.0604,42.31896,596610,184703,35550,149153
"1 Orient Ave, Boston, 2128",-70.9993,42.38983,977084,257520,62103,195417
"6 Ashmont Ct, Boston, 2122",-71.054,42.28814,797095,110668,59243,51425
"11 Eastbourne St, Boston, 2131",-71.1419,42.28091,488130,128651,31025,97626
"11 Ginita St, Boston, 2122",-71.0575,42.29481,648628,170952,41226,129726
"11 Gloucester St #4, Boston, 2115",-71.0849,42.35105,1310371,345361,83286,262075
"11 Gerald Rd, Boston, 2135",-71.1604,42.34025,1043106,274921,66299,208622
"31 Greenwich Park, Boston, 2118",-71.084,42.33565,4691123,1236392,298167,938225
"80-86 Erie St, Boston, 2121",-71.0815,42.30194,205702,54215,13074,41141
"11 Helen St, Boston, 2124",-71.08,42.29328,417414,110013,26530,83483
"11 Hendry St, Boston, 2122",-71.0647,42.30917,1160819,359375,69170,290205
"11 Hereford St, Boston, 2115",-71.0869,42.35108,1405131,370335,89309,281026
"11 Highland Park Ave, Boston, 2119",-71.0958,42.32683,617106,162645,39223,123422
"11 Leedsville St, Boston, 2122",-71.0592,42.30518,141931,37408,9021,28387
"11 Leston St, Boston, 2126",-71.09,42.28353,628176,165561,39926,125635
"11 Mascoma St, Boston, 2121",-71.0752,42.31209,519827,52971,40292,12679
"11 Mount Pleasant Ave, Boston, 2119",-71.0795,42.32804,1173672,193761,84572,109189
"1900 Washington St, Boston, 2118",-71.0789,42.33501,1157074,482482,58221,424261
"1902-1904 Washington St, Boston, 2118",-71.0789,42.33501,1690613,445578,107455,338123
"11 Newcomb St, Boston, 2118",-71.0789,42.33449,2873657,757381,182649,574732
"11 Pacific St, Boston, 2127",-71.0457,42.33443,1824537,480875,115967,364908
"11 Park Dr #19, Boston, 2215",-71.0948,42.3446,734097,193479,46659,146820
"11-11A Parker Hill Ave, Boston, 2120",-71.1097,42.33277,3561358,1207629,203143,1004486
"11 Priesing St, Boston, 2130",-71.1043,42.32173,1029981,271462,65465,205997
"11 Radford Pl, Boston, 2136",-71.1276,42.25477,119281,31438,7581,23857
"11 Rutland Sq, Boston, 2118",-71.0777,42.34139,3853060,1015511,244899,770612
"11 Saint Marks Rd #2, Boston, 2124",-71.071,42.28569,181604,31145,12985,18160
"11 Frederick St, Boston, 2127",-71.0532,42.33368,836795,352432,41803,310629
"32 Kittredge St, Boston, 2131",-71.1292,42.28392,173470,45719,11025,34694
"11 Tafthill Ter, Boston, 2131",-71.1285,42.28736,2883946,760093,183303,576790
"11 Ticknor St, Boston, 2127",-71.0359,42.32963,2607281,497396,182097,315299
"11 Union St #2, Boston, 2129",-71.0641,42.37432,988509,260531,62829,197702
"11-11A Wabeno St, Boston, 2121",-71.0869,42.31511,69847,18409,4439,13970
"11-11E W Broadway, Boston, 2127",-71.0572,42.34282,6566399,2198006,377022,1820984
"8-10 Silver St, Boston, 2127",-71.0569,42.34214,6566399,2198006,377022,1820984
"9-11 Worcester Sq #4, Boston, 2118",-71.0738,42.33597,1959312,516396,124533,391863
"11 Pompeii St, Boston, 2119",-71.0698,42.33009,523044,137853,33244,104609
"55 Revere St, Boston, 2114",-71.0684,42.35966,2934703,874777,177785,696992
"9 Cass St #5, Boston, 2132",-71.1644,42.27679,367682,96906,23369,73537
"11 Cass St #8, Boston, 2132",-71.1643,42.27673,321409,84710,20428,64282
"110 Bolton St, Boston, 2127",-71.0511,42.34093,198870,52414,12640,39774
"110 Canal St, Boston, 2114",-71.0605,42.36474,28250907,5820406,1935907,3884499
"112-118 Canal St, Boston, 2114",-71.0605,42.36476,28250907,5820406,1935907,3884499
"110 Harold St, Boston, 2121",-71.0896,42.31748,769327,238174,45842,192332
"101 Morris St, Boston, 2128",-71.032,42.37637,641531,169082,40775,128307
"110 N St #3, Boston, 2127",-71.0312,42.33465,763703,201281,48540,152741
"110 Norton St #1, Boston, 2122",-71.0669,42.30483,88041,23204,5595,17609
"110 Paris St, Boston, 2128",-71.0373,42.3728,914345,240984,58115,182869
"110 Pembroke St, Boston, 2118",-71.0769,42.3424,2436557,642179,154867,487312
"110 Peterborough St, Boston, 2215",-71.0997,42.34297,11175677,2173877,776917,1396960
"110 Saint Botolph St, Boston, 2115",-71.0812,42.34452,3516798,926887,223527,703360
"110 Stuart St #23F, Boston, 2116",-71.0654,42.35101,1208370,565385,55494,509891
"110 Stuart St #22B, Boston, 2116",-71.0654,42.35101,2585312,681385,164322,517063
"110 Union Park St #2, Boston, 2118",-71.0668,42.34029,567582,97355,40583,56772
"110 Union Park St #2, Boston, 2118",-71.0668,42.34029,605835,187965,36064,151901
"110-112 Litchfield St, Boston, 2135",-71.14,42.36172,1399714,433333,83405,349928
"2 Avondale St, Boston, 2124",-71.0693,42.27371,366837,96684,23316,73368
"1109 Boylston St #20, Boston, 2215",-71.0903,42.34665,753115,198490,47867,150623
"111 Boston St, Boston, 2125",-71.059,42.32598,5621,1482,357,1125
"105-113 Dorchester St, Boston, 2127",-71.0459,42.33547,1100415,612228,42133,570095
"390-390A Dorchester St, Boston, 2127",-71.0568,42.32952,1552241,409109,98660,310449
"111 Falcon St, Boston, 2128",-71.0347,42.38187,1394658,285876,95695,190181
"111 Fuller St #1, Boston, 2124",-71.0708,42.28225,914531,241034,58127,182907
"111 Fuller St #2, Boston, 2124",-71.0708,42.28225,914531,241034,58127,182907
"111 Fuller St #3, Boston, 2124",-71.0708,42.28225,914531,241034,58127,182907
"111 G St, Boston, 2127",-71.0441,42.33203,1682106,1682105,0,1682105
"105-113 Dorchester St, Boston, 2127",-71.0459,42.33547,3084730,1917591,100732,1816859
"111 Orient Ave, Boston, 2128",-71.0039,42.39026,11074158,2918703,703871,2214832
"111 Roslindale Ave, Boston, 2131",-71.1347,42.2839,950016,294112,56608,237504
"107-111 Terrace St, Boston, 2120",-71.0982,42.32869,771576,238870,45976,192894
"111-115 Newbury St, Boston, 2116",-71.0759,42.35149,21118128,5565891,1342265,4223626
"111 Grove St #3, Boston, 2132",-71.1589,42.26564,284707,75037,18095,56942
"1110 Blue Hill Ave, Boston, 2124",-71.0909,42.28564,177413,46759,11276,35483
"253 Woodrow Ave, Boston, 2124",-71.0901,42.28591,89467,23580,5686,17894
"1111 Boylston St #23, Boston, 2215",-71.0904,42.34667,1,0,0,0
"1111 Boylston St #24, Boston, 2215",-71.0904,42.34667,1,0,0,0
"1111 Boylston St #28, Boston, 2215",-71.0904,42.34667,1,0,0,0
"1111 Boylston St #29, Boston, 2215",-71.0904,42.34667,1,0,0,0
"1111 Boylston St #30, Boston, 2215",-71.0904,42.34667,1,0,0,0
"1111 Boylston St #37, Boston, 2215",-71.0904,42.34667,1,0,0,0
"1111 Boylston St #38, Boston, 2215",-71.0904,42.34667,1,0,0,0
"1111 Boylston St #41, Boston, 2215",-71.0904,42.34667,1,0,0,0
"1111 Boylston St #49, Boston, 2215",-71.0904,42.34667,1,0,0,0
"1111 Boylston St #53, Boston, 2215",-71.0904,42.34667,1,0,0,0
"1114 Saratoga St, Boston, 2128",-71.0012,42.38477,788247,207750,50100,157650
"112 Adams St, Boston, 2122",-71.0612,42.30503,2293531,604483,145776,458707
"112 Brookside Ave #1, Boston, 2130",-71.1054,42.31107,321817,84818,20454,64364
"112 Brookside Ave #2, Boston, 2130",-71.1054,42.31107,371318,97864,23600,74264
"112 Brookside Ave #3, Boston, 2130",-71.1054,42.31107,371425,97892,23607,74285
"112 Charles St, Boston, 2114",-71.0709,42.35906,3454615,2208874,107515,2101359
"112 Hillside St, Boston, 2120",-71.1044,42.33074,1749158,541516,104227,437289
"20 Dawes St #3, Boston, 2125",-71.0605,42.31858,581814,180251,34657,145594
"112 Hillside St, Boston, 2120",-71.1044,42.33074,1947741,513346,123798,389548
"102-114 Water St, Boston, 2109",-71.0554,42.35791,7783538,2861088,424841,2436247
"54-58 Kilby St, Boston, 2109",-71.0552,42.35796,7783538,2861088,424841,2436247
"112 Myrtle St, Boston, 2114",-71.0686,42.35925,2183401,575457,138776,436681
"112 N St #2, Boston, 2127",-71.0313,42.33447,500847,132003,31833,100170
"112 Pembroke St, Boston, 2118",-71.077,42.34244,3215068,1262321,168535,1093786
"112-116 Savin Hill Ave, Boston, 2125",-71.0536,42.31168,1241897,327314,78934,248380
"12-14 Deer St, Boston, 2125",-71.058,42.3125,899423,237052,57167,179885
"1121 Dorchester Ave, Boston, 2125",-71.0574,42.31243,4272264,1125997,271544,854453
"31 Savin Hill Ave, Boston, 2125",-71.0576,42.31281,4272264,1125997,271544,854453
"31 Savin Hill Ave, Boston, 2125",-71.0576,42.31281,565664,149086,35953,113133
"113 Appleton St, Boston, 2116",-71.0743,42.34534,2942802,775605,187044,588561
"113 Dale St #1, Boston, 2119",-71.0885,42.32265,93910,24750,5968,18782
"113 Dale St #2, Boston, 2119",-71.0885,42.32265,93910,26243,7461,18782
"113 Evans St, Boston, 2124",-71.083,42.28181,289268,80835,22982,57853
"113 Fuller St, Boston, 2124",-71.071,42.28221,1158008,98213,91467,6746
"74 Ashton St, Boston, 2124",-71.0897,42.28578,45236,11923,2875,9048
"1140 Washington St #2F, Boston, 2024",-71.0669,42.34295,1621365,427326,103053,324273
"1135 Harrison Ave, Boston, 2119",-71.082,42.33026,2144243,1266961,75715,1191246
"586 Columbus Ave #1, Boston, 2118",-71.082,42.34026,831047,334542,42851,291691
"114 Appleton St #2, Boston, 2116",-71.0743,42.34517,828408,218335,52653,165682
"114 Chestnut Ave #1, Boston, 2130",-71.1053,42.31889,52824,13922,3357,10565
"114 Chestnut Ave #3, Boston, 2130",-71.1053,42.31889,104181,27458,6621,20837
"114 Chestnut Ave #4, Boston, 2130",-71.1053,42.31889,136463,35966,8673,27293
"114 Everett St, Boston, 2128",-71.0336,42.36711,640041,168689,40680,128009
"114 Falcon St, Boston, 2128",-71.0345,42.38205,1072121,282568,68143,214425
"114 Leyden St, Boston, 2128",-71.0078,42.38923,527111,138926,33503,105423
"114 Prince St, Boston, 2113",-71.0569,42.36608,1736253,457606,110355,347251
"114-116 W Selden St, Boston, 2126",-71.086,42.27707,288979,76163,18367,57796
"115 Gainsborough St, Boston, 2115",-71.0898,42.34262,25720544,12417459,1148148,11269311
"1141 Bennington St, Boston, 2128",-70.9975,42.38957,9529972,2511718,605723,1905995
"1441 Tremont St, Boston, 2120",-71.0967,42.33172,1091700,287728,69388,218340
"1141 Washington St, Boston, 2124",-71.0695,42.27246,563465,148506,35813,112693
"115 Adams St, Boston, 2122",-71.0614,42.30483,588560,155120,37408,117712
"115 Adams St, Boston, 2122",-71.0614,42.30483,977010,257500,62098,195402
"115-121 Boston St, Boston, 2125",-71.0591,42.32571,1597298,420983,101524,319459
"5 W Howell St, Boston, 2125",-71.0594,42.32548,1597298,420984,101524,319460
"212 Belgrade Ave, Boston, 2131",-71.1393,42.28617,1770740,466696,112548,354148
"115 G St, Boston, 2127",-71.0443,42.33213,1477006,389280,93878,295402
"115 Redlands Rd, Boston, 2132",-71.1534,42.2907,709303,219591,42265,177326
"115 Salem St #C1, Boston, 2113",-71.0553,42.36448,806327,232019,49566,182453
"115-119 Broad St, Boston, 2110",-71.0525,42.3573,27613602,7277837,1755116,5522721
"85-87 Wendell St, Boston, 2110",-71.0525,42.35692,27613602,7277837,1755116,5522721
"89-99 Wendell St, Boston, 2110",-71.0525,42.35692,27613602,7277837,1755116,5522721
"300 Marlborough St #1, Boston, 2116",-71.084,42.35135,6807073,3224668,309186,2915482
"300 Marlborough St #2, Boston, 2116",-71.084,42.35135,6807073,3224668,309186,2915482
"300 Marlborough St #3, Boston, 2116",-71.084,42.35135,6807073,3224668,309186,2915482
"300 Marlborough St #4, Boston, 2116",-71.084,42.35135,6807073,3224668,309186,2915482
"300 Marlborough St #5, Boston, 2116",-71.084,42.35135,6807073,3224668,309186,2915482
"300 Marlborough St #6, Boston, 2116",-71.084,42.35135,6807073,3224668,309186,2915482
"300 Marlborough St #7, Boston, 2116",-71.084,42.35135,6807073,3224668,309186,2915482
"300 Marlborough St #8, Boston, 2116",-71.084,42.35135,6807073,3224668,309186,2915482
"300 Marlborough St #9, Boston, 2116",-71.084,42.35135,6807073,3224668,309186,2915482
"116 Bennington St, Boston, 2128",-71.0348,42.37651,912867,240595,58021,182574
"116 Bennington St, Boston, 2128",-71.0348,42.37651,543037,143122,34515,108607
"116-118H Dorchester St, Boston, 2127",-71.0462,42.33515,2828403,476208,203010,273198
"116 Harrishof St, Boston, 2121",-71.0897,42.31705,317925,83792,20207,63585
"116 Homestead St, Boston, 2121",-71.0897,42.31165,1257263,488252,66370,421882
"116 London St, Boston, 2128",-71.0394,42.37317,1036849,273271,65901,207370
"114 Marine Rd, Boston, 2127",-71.0345,42.33075,879868,231898,55924,175974
"281 Gold St, Boston, 2127",-71.0478,42.33497,514255,135536,32685,102851
"447 W 4th St, Boston, 2127",-71.0477,42.33539,610067,160788,38775,122013
"116 Riverway #99, Boston, 2215",-71.1048,42.34336,515025,135739,32734,103005
"116 W Broadway #3RES, Boston, 2127",-71.0546,42.34134,812501,214143,51642,162501
"116-116A Gladstone St, Boston, 2128",-71.0052,42.38925,1047637,276115,66587,209528
"122 Gladstone St, Boston, 2128",-71.0056,42.3893,1100608,290076,69954,220122
"11 Frontenac St, Boston, 2124",-71.0907,42.28462,54790,14440,3482,10958
"1162 Morton St, Boston, 2126",-71.0736,42.27576,654893,204687,38855,165832
"1169 Commonwealth Ave #2, Boston, 2134",-71.1283,42.35072,609868,160737,38763,121974
"117 Centre St, Boston, 2119",-71.0961,42.32727,987369,260231,62757,197474
"117 Commonwealth Ave #1, Boston, 2116",-71.0774,42.35239,10274828,2708032,653066,2054966
"117 Commonwealth Ave #2, Boston, 2116",-71.0774,42.35239,5881541,1550138,373829,1176309
"117 Townsend St, Boston, 2121",-71.0901,42.318,790255,208279,50228,158051
"1170 William T Morrissey Blvd, Boston, 2122",-71.0436,42.28878,2144243,565136,136287,428849
"118 Appleton St, Boston, 2116",-71.0744,42.34513,5062976,1334398,321802,1012596
"118 Charles St, Boston, 2114",-71.0708,42.35913,2680420,1104202,136038,968164
"118 Howland St, Boston, 2121",-71.0893,42.3141,1086569,114906,83861,31045
"120 Howland St, Boston, 2121",-71.0893,42.31411,2787,735,177,558
"118 Howland St, Boston, 2121",-71.0893,42.3141,396719,104559,25215,79344
"5-7 Deering Rd, Boston, 2126",-71.0919,42.28368,119124,31396,7571,23825
"1187-1195 Blue Hill Ave, Boston, 2126",-71.0918,42.28398,833872,219775,53000,166775
"1188 Dorchester Ave, Boston, 2125",-71.0577,42.3101,5448477,5047229,34630,5012599
"119 Belgrade Ave, Boston, 2131",-71.1353,42.28639,380361,59398,27701,31697
"119 Cottage St, Boston, 2128",-71.0344,42.36845,2152523,567319,136814,430505
"119-1/2 Saint Botolph St, Boston, 2115",-71.0816,42.34426,5326473,1403844,338549,1065295
"119 Warren Ave, Boston, 2116",-71.0743,42.34446,2341863,617221,148848,468373
"119 Addison St, Boston, 2128",-71.016,42.38531,2883946,760093,183303,576790
"121 Addison St, Boston, 2128",-71.0163,42.38529,2883946,760093,183303,576790
"37 Stonehurst St, Boston, 2122",-71.0668,42.30527,449711,118526,28583,89943
"15 Linden St, Boston, 2134",-71.131,42.35535,1786869,470947,113573,357374
"180 Beacon St #11D, Boston, 2116",-71.0758,42.35455,1436828,378690,91324,287366
"180 Beacon St #11E, Boston, 2116",-71.0758,42.35455,2579761,917402,143473,773929
"12 American Legion Hwy, Boston, 2124",-71.0875,42.29794,3663291,962638,233084,729554
"12 American Legion Hwy, Boston, 2124",-71.0875,42.29794,4943908,1530571,294594,1235977
"12 Arcadia Park, Boston, 2122",-71.0609,42.30184,873360,230182,55510,174672
"12 Austin St, Boston, 2129",-71.0649,42.37511,835971,220329,53134,167195
"12 Bradford St #2, Boston, 2118",-71.0687,42.34281,835664,139769,60060,79709
"14 Cawfield St, Boston, 2125",-71.0639,42.31958,357373,94189,22714,71475
"218-220 Havre St, Boston, 2128",-71.036,42.37497,438134,115474,27847,87627
"12 Church St, Boston, 2132",-71.1454,42.28843,1935775,510192,123037,387155
"12 Church St, Boston, 2122",-71.0633,42.30862,557593,146959,35440,111519
"12 Cypress St, Boston, 2132",-71.1675,42.27457,452630,119295,28769,90526
"12 Dalrymple St, Boston, 2130",-71.1011,42.31487,2036419,630449,121344,509105
"14 Dana Ave, Boston, 2136",-71.1247,42.25422,1265405,432659,71871,360788
"12 Dana Ave, Boston, 2136",-71.1248,42.25427,753232,342006,35491,306515
"12-12A Derne St, Boston, 2114",-71.0633,42.35954,1686419,444472,107188,337284
"12 Elwyn Rd, Boston, 2124",-71.0744,42.29556,769912,129757,55249,74508
"12 Estrella St, Boston, 2130",-71.1027,42.32282,1210748,410555,69062,341493
"12 Foster St, Boston, 2109",-71.0544,42.36742,4702349,1275423,295767,979656
"12 Fox St, Boston, 2122",-71.0628,42.30644,718414,189345,45662,143683
"12 Wheatland Ave #1, Boston, 2124",-71.0724,42.29369,110051,30753,8743,22010
"12 Wheatland Ave #2, Boston, 2124",-71.0724,42.29369,95377,26653,7577,19075
"12-12A Grove St, Boston, 2114",-71.0686,42.36075,2060515,235078,157547,77531
"12 Hemenway St, Boston, 2115",-71.0893,42.34646,16327601,4303301,1037780,3265521
"15 Haviland St, Boston, 2115",-71.0887,42.34631,16327601,4303301,1037780,3265521
"12 Hereford St #4, Boston, 2115",-71.0867,42.35115,1848284,487133,117476,369657
"12 Hinckley St, Boston, 2125",-71.0594,42.31721,1230879,324410,78234,246176
"431 W 4th St #2, Boston, 2127",-71.0474,42.3352,1066700,298514,66299,232215
"12 Jacob St #1, Boston, 2124",-71.0828,42.28617,358042,44926,27024,17902
"12 Leslie St #3, Boston, 2122",-71.0587,42.29561,99184,26141,6304,19837
"12 Lyndhurst St #1R, Boston, 2124",-71.0713,42.29244,58191,15337,3698,11639
"12 Lyndhurst St #3R, Boston, 2124",-71.0713,42.29244,55353,14589,3518,11071
"14 Lyndhurst St #3R, Boston, 2124",-71.0712,42.29246,42579,11222,2706,8516
"14 Lyndhurst St #2R, Boston, 2124",-71.0712,42.29246,56772,14963,3608,11355
"12 Lyndhurst St #2R, Boston, 2124",-71.0713,42.29244,66707,17581,4239,13342
"14 Lyndhurst St #1R, Boston, 2124",-71.0712,42.29246,48438,12766,3078,9688
"14 Lyndhurst St #3F, Boston, 2124",-71.0712,42.29246,169534,44682,10775,33907
"14 Lyndhurst St #1F, Boston, 2124",-71.0712,42.29246,63472,16729,4034,12695
"12 Lyndhurst St #2F, Boston, 2124",-71.0713,42.29244,61494,16207,3908,12299
"12 Mallet St, Boston, 2124",-71.057,42.29056,391862,103279,24906,78373
"12 Marlborough St #3, Boston, 2116",-71.0725,42.35444,4816325,1269389,306124,963265
"14-26 Palmer St, Boston, 2119",-71.0829,42.33067,2295862,605097,145924,459173
"12 Navillus Ter, Boston, 2122",-71.0624,42.31018,559252,147396,35546,111850
"12 Normandy St, Boston, 2121",-71.0779,42.31163,719539,189641,45733,143908
"12 Nottingham St, Boston, 2121",-71.0735,42.30049,338410,94568,26886,67682
"90 Wood Ave, Boston, 2136",-71.1103,42.27166,278418,73380,17696,55684
"12 Rosselerin Rd, Boston, 2122",-71.0542,42.2918,360476,61823,25775,36048
"12 Sawyer Ave, Boston, 2125",-71.0592,42.31281,954645,251606,60677,190929
"12 Spring St, Boston, 2132",-71.1605,42.27802,911793,240312,57953,182359
"12 Sutton St, Boston, 2126",-71.0886,42.28238,162567,42846,10332,32514
"12 Walnut St #4, Boston, 2108",-71.066,42.3579,744106,206721,46380,160341
"12 Westmount Ave, Boston, 2132",-71.1593,42.28347,652953,172092,41501,130591
"12 Wheatland Ave #3, Boston, 2124",-71.0724,42.29369,77749,21726,6177,15549
"12 Wildwood St, Boston, 2124",-71.0869,42.28378,211389,55713,13435,42278
"12 York St #1, Boston, 2121",-71.0814,42.29951,91886,24218,5840,18378
"12 York St #3, Boston, 2121",-71.0814,42.29951,84818,22354,5390,16964
"14 Chiswick Rd, Boston, 2135",-71.1509,42.33802,2483587,768887,147990,620897
"12-14A Walk Hill St, Boston, 2130",-71.1158,42.29555,1517778,819182,60293,758889
"12-18 Lagrange St, Boston, 2116",-71.0642,42.35157,11771211,6895015,420849,6474166
"12 Melrose St #2, Boston, 2116",-71.0675,42.3495,585756,154382,37230,117152
"100 Legends Way, Boston, 2114",-71.0625,42.36543,5751489,1515861,365563,1150298
"120 Appleton St, Boston, 2116",-71.0745,42.34511,3649075,1590236,177691,1412545
"120 Braintree St, Boston, 2134",-71.1371,42.35635,1166461,464321,60599,403722
"120 Business St, Boston, 2136",-71.13,42.2511,1542765,406610,98057,308553
"120 Charles St, Boston, 2114",-71.0709,42.35931,2725077,718221,173205,545016
"120 Commercial St #4-2, Boston, 2109",-71.0526,42.36213,588290,155049,37391,117658
"120 Elm St, Boston, 2129",-71.0623,42.37966,212045,55886,13477,42409
"120 Mountfort St #504, Boston, 2215",-71.106,42.3484,1219843,321502,77533,243969
"120 Salem St, Boston, 2113",-71.0556,42.36475,4624044,1218712,293903,924809
"126 Salem St, Boston, 2113",-71.0555,42.36509,1061256,279705,67453,212252
"120 Savin Hill Ave, Boston, 2125",-71.0529,42.31129,413273,108922,26267,82655
"31 Pasadena Rd, Boston, 2121",-71.083,42.30555,419087,110454,26637,83817
"120-130 Southampton St, Boston, 2118",-71.0687,42.33193,9569173,1724748,677028,1047720
"120 Spring St, Boston, 2132",-71.1656,42.27663,862152,227229,54798,172431
"120 Saint Andrew Rd, Boston, 2128",-71,42.38353,640839,168899,40731,128168
"120 Fulton St #7A, Boston, 2109",-71.0527,42.36294,2661180,701380,169144,532236
"1200 Soldiers Field Rd, Boston, 2134",-71.1353,42.36466,4817910,1269807,306225,963582
"1200 Soldiers Field Rd, Boston, 2134",-71.1353,42.36466,10028324,3412102,571025,2841077
"300 Boylston St #1201, Boston, 2116",-71.0699,42.35201,5944461,987080,427856,559224
"1201 Saratoga St, Boston, 2128",-70.9979,42.38336,1292922,340762,82177,258585
"300 Boylston St #1202, Boston, 2116",-71.0702,42.35185,5779591,1523268,367349,1155919
"1203-1205 Adams St, Boston, 2124",-71.0672,42.27237,809007,213222,51420,161802
"121-123 Beach St #101, Boston, 2111",-71.0578,42.35066,768892,357582,35498,322084
"121 Brookline Ave, Boston, 2215",-71.1003,42.34567,156124,41148,9923,31225
"121 Charles St S #121, Boston, 2116",-71.0666,42.34939,705352,185903,44832,141071
"121 Cottage St, Boston, 2128",-71.0343,42.36852,1044966,275411,66417,208994
"121 Pembroke St, Boston, 2118",-71.0769,42.34265,2793919,736365,177581,558784
"121 Warren Ave, Boston, 2116",-71.0743,42.34444,2585844,681524,164355,517169
"121 Beacon St #1, Boston, 2116",-71.0738,42.355,1008217,265726,64082,201644
"121 Tremont St #422, Boston, 2135",-71.1738,42.35164,481632,126939,30612,96327
"220 Boylston St #1210, Boston, 2116",-71.0683,42.35235,3082448,1096164,171430,924734
"1217 Hyde Park Ave, Boston, 2136",-71.1235,42.25856,527762,163388,31447,131941
"1217 Hyde Park Ave, Boston, 2136",-71.1235,42.25856,1584839,490646,94436,396210
"1227 Hyde Park Ave, Boston, 2136",-71.1239,42.25713,1584839,490646,94436,396210
"133 Seaport Blvd #1219, Boston, 2210",-71.0439,42.35097,1292479,398510,77155,321355
"122 Bennett St, Boston, 2135",-71.1587,42.35181,914345,240984,58115,182869
"122-124 Brighton Ave, Boston, 2134",-71.1315,42.35279,4353992,1147538,276739,870799
"77-R Linden St, Boston, 2134",-71.1303,42.35274,1088498,286884,69184,217700
"122 Englewood Ave, Boston, 2135",-71.1506,42.33741,1905911,517319,119845,397474
"122 Tonawanda St #3, Boston, 2124",-71.0704,42.29767,74215,20739,5896,14843
"122-124 Boston St, Boston, 2125",-71.0592,42.3251,1530257,685050,72947,612103
"122-124 Boston St, Boston, 2125",-71.0592,42.3251,881690,274462,52407,222055
"11 Edison Grn, Boston, 2125",-71.0782,42.28736,629962,166033,40040,125993
"1220-1226 Hyde Park Ave, Boston, 2136",-71.1236,42.25725,957170,252271,60837,191434
"1 Franklin St #4703, Boston, 2110",-71.0592,42.35606,5061620,510504,392792,117712
"1224 Blue Hill Ave, Boston, 2126",-71.0918,42.28284,44020,11601,2797,8804
"50-56 Broadlawn Park #123, Boston, 2467",-71.1649,42.30335,513487,135335,32637,102698
"123 F St, Boston, 2127",-71.0484,42.33624,941696,248194,59854,188340
"121-129 Hamilton St, Boston, 2125",-71.0681,42.3069,1568990,413522,99724,313798
"148 Stanwood St #1, Boston, 2121",-71.0777,42.30785,514384,135571,32694,102877
"148 Stanwood St #2, Boston, 2121",-71.0777,42.30785,514384,159246,30650,128596
"148 Stanwood St #3, Boston, 2121",-71.0777,42.30785,514384,135571,32694,102877
"6 Hosmer St #1, Boston, 2126",-71.092,42.28166,510323,157989,30408,127581
"6 Hosmer St #2, Boston, 2126",-71.092,42.28166,510323,157989,30408,127581
"6 Hosmer St #3, Boston, 2126",-71.092,42.28166,510323,157989,30408,127581
"26 Elder St #1, Boston, 2125",-71.0637,42.32037,434627,121456,34531,86925
"123 Newbury St, Boston, 2116",-71.0765,42.35132,14405580,3913027,905579,3007448
"123 Newbury St, Boston, 2116",-71.0765,42.35132,7356359,2530408,416512,2113896
"123 Pembroke St, Boston, 2118",-71.0769,42.34269,4116948,1085062,261672,823390
"123 Radcliffe St, Boston, 2121",-71.0783,42.29836,105977,27931,6735,21196
"123 South St #4, Boston, 2111",-71.0574,42.35109,497308,131070,31608,99462
"123-125 Centre St, Boston, 2124",-71.0668,42.29159,807165,212736,51303,161433
"123 Richmond St #123, Boston, 2124",-71.0626,42.27522,865184,323384,46760,276624
"1241-1251 Adams St #F112, Boston, 2124",-71.068,42.2717,60337,15902,3834,12068
"1234 Blue Hill Ave, Boston, 2126",-71.0919,42.28208,651797,171788,41428,130360
"1232-1236 Commonwealth Ave, Boston, 2134",-71.132,42.34954,7888517,1023392,592507,430885
"144 Sutherland Rd, Boston, 2135",-71.1476,42.34072,2187572,576556,139041,437515
"1238 Blue Hill Ave, Boston, 2126",-71.092,42.28193,649247,171116,41266,129850
"124 Selden St, Boston, 2124",-71.0816,42.28054,1253634,330407,79680,250727
"124 Warren St, Boston, 2119",-71.0831,42.32639,833872,285571,47322,238249
"126 Warren St, Boston, 2119",-71.0831,42.32632,833872,285571,47322,238249
"124-126 Homestead St, Boston, 2121",-71.0893,42.31148,169205,44595,10754,33841
"124-126 Bunker Hill St #2, Boston, 2129",-71.0593,42.37785,1274633,570614,60761,509853
"1245 Dorchester Ave, Boston, 2125",-71.0585,42.30789,3296465,1078901,191391,887510
"1246 Massachusetts Ave, Boston, 2125",-71.0627,42.32203,4242605,1118180,269659,848521
"125 Addison St, Boston, 2128",-71.0162,42.38526,909516,281574,54195,227379
"125 Bartlett St, Boston, 2129",-71.066,42.37912,29347,7735,1865,5870
"215 Bennington St, Boston, 2128",-71.0311,42.3777,195081,51416,12399,39017
"125 Cottage St, Boston, 2128",-71.0342,42.36866,1576495,415500,100201,315299
"125 Cottage St, Boston, 2128",-71.0342,42.36866,1091420,287654,69370,218284
"125 F St, Boston, 2127",-71.0482,42.33632,1502139,395903,95475,300428
"109-153 Lincoln St, Boston, 2111",-71.0585,42.35139,50080914,13199319,3183136,10016183
"125 Newbury St, Boston, 2116",-71.0766,42.35129,12528821,3302095,796330,2505765
"125 Pembroke St, Boston, 2118",-71.077,42.34273,2553586,996827,134358,862469
"125 Saratoga St, Boston, 2128",-71.0355,42.37683,562268,148191,35737,112454
"125 Temple St, Boston, 2132",-71.1638,42.28146,659635,173853,41926,131927
"126 Tremont St, Boston, 2108",-71.0618,42.35666,12929220,3407623,821779,2585844
"127 Myrtle St, Boston, 2114",-71.0688,42.35941,3167719,834883,201339,633544
"1246 Massachusetts Ave, Boston, 2125",-71.0627,42.32203,1955556,613043,115868,497175
"126 Ballou Ave, Boston, 2124",-71.0836,42.28429,153665,40499,9766,30733
"126 D St, Boston, 2127",-71.0546,42.33577,1899944,500749,120760,379989
"178 Bowen St, Boston, 2127",-71.0512,42.3363,757768,199717,48163,151554
"14-16 Linley Ter, Boston, 2127",-71.0392,42.33636,906374,238883,57608,181275
"126-128 London St, Boston, 2128",-71.0392,42.37333,832261,73217,65510,7707
"122-126 State St, Boston, 2109",-71.0553,42.35924,9103249,2399251,578601,1820650
"126-128 London St, Boston, 2128",-71.0392,42.37333,642818,199007,38303,160704
"1269 Commonwealth Ave #1, Boston, 2134",-71.1329,42.34971,340423,89722,21637,68085
"127 Arlington St, Boston, 2135",-71.1581,42.35274,752098,198223,47803,150420
"127 Bolton St, Boston, 2127",-71.0504,42.34027,292312,77042,18579,58463
"131 E Cottage St, Boston, 2125",-71.0641,42.32099,1161465,306115,73822,232293
"127 Glenville Ave #127, Boston, 2134",-71.136,42.34906,653805,214609,37905,176704
"127 Pembroke St #1, Boston, 2118",-71.077,42.34277,748457,197263,47571,149692
"127 Saratoga St, Boston, 2128",-71.0351,42.37708,646461,170381,41088,129293
"127 Shirley St, Boston, 2119",-71.0685,42.32533,1310371,345361,83286,262075
"59 Baxter St, Boston, 2127",-71.0543,42.33573,141931,89669,4510,85159
"127-129A Newbury St, Boston, 2116",-71.0767,42.35126,17497877,4611738,1112162,3499576
"1274 Dorchester Ave, Boston, 2122",-71.0583,42.30765,314798,82968,20008,62960
"1278 Dorchester Ave, Boston, 2122",-71.0583,42.30762,1708905,450398,108617,341781
"128 Beacon St #A, Boston, 2116",-71.0749,42.35491,6382501,1682171,405670,1276501
"128 Beacon St #A, Boston, 2116",-71.0749,42.35491,6250513,2268286,343693,1924593
"128 Beacon St #K, Boston, 2116",-71.0738,42.3551,6858107,2438844,381412,2057432
"128 Beacon St #D, Boston, 2116",-71.0738,42.3551,8432100,3588505,418035,3170470
"128 Beacon St #F, Boston, 2116",-71.0749,42.35491,3230712,1446292,154007,1292285
"128 Saint Botolph St, Boston, 2115",-71.0819,42.344,3147984,829682,200085,629597
"70 Van Ness St, Boston, 2215",-71.0992,42.34507,3287975,866578,208983,657595
"128 Bremen St, Boston, 2128",-71.0359,42.3716,993434,261829,63142,198687
"124-128 Brookside Ave, Boston, 2130",-71.1058,42.31071,2173138,572751,138124,434627
"27 Wareham St #201, Boston, 2118",-71.068,42.33958,536929,141513,34127,107386
"27 Wareham St #203, Boston, 2118",-71.068,42.33958,536929,141513,34127,107386
"27 Wareham St #301, Boston, 2118",-71.0681,42.33983,536929,141513,34127,107386
"27 Wareham St #303, Boston, 2118",-71.068,42.33958,536929,141513,34127,107386
"150 Beacon St #1, Boston, 2116",-71.0757,42.35468,353256,93104,22452,70652
"128 Beacon St #D, Boston, 2116",-71.0738,42.3551,6382501,4949474,123680,4825794
"128 Hamilton St, Boston, 2125",-71.0678,42.30693,37835,9971,2404,7567
"128 Hancock St, Boston, 2125",-71.0632,42.31188,706394,115238,51020,64218
"128 Putnam St, Boston, 2128",-71.0322,42.3788,988939,260644,62856,197788
"128-130 Calumet St, Boston, 2120",-71.1029,42.33082,1826337,691503,97943,593560
"128 Beacon St #C, Boston, 2116",-71.0749,42.35491,1169039,308111,74303,233808
"1280-1284 Washington St #PH, Boston, 2118",-71.0676,42.34226,5786824,2384981,293602,2091379
"1280-1284 Washington St #502, Boston, 2118",-71.0676,42.34226,2961677,780579,188243,592336
"1285 River St, Boston, 2136",-71.1245,42.25586,716507,188843,45541,143302
"129 Cedar St, Boston, 2119",-71.0943,42.32736,431234,113656,27409,86247
"129-131 Clement Ave, Boston, 2132",-71.153,42.28487,808738,268681,46610,222071
"129 Eutaw St, Boston, 2128",-71.0352,42.38004,760722,142138,53387,88751
"129 Glenville Ave #129, Boston, 2134",-71.1361,42.34906,653805,214609,37905,176704
"129-131 Paul Gore St, Boston, 2130",-71.1054,42.31816,2465958,204786,195154,9632
"304-308 Dudley St, Boston, 2119",-71.0775,42.3279,476889,240504,20401,220103
"137 Peterborough St #12A, Boston, 2215",-71.1004,42.34296,582066,153409,36995,116414
"162-168 Warren St, Boston, 2119",-71.0831,42.32548,686034,180811,43604,137207
"13 Anderson St, Boston, 2114",-71.0679,42.36064,3531363,1255805,196396,1059409
"13 Bradford St, Boston, 2118",-71.0686,42.34264,2609279,275001,201464,73537
"13 Byron St, Boston, 2108",-71.0702,42.35652,3118122,821811,198187,623624
"13 Centre St, Boston, 2119",-71.0925,42.32994,309229,81500,19654,61846
"268-270 Wood Ave, Boston, 2136",-71.1099,42.26491,666978,108807,48173,60634
"13 Greylock Rd, Boston, 2134",-71.1359,42.35062,925136,286410,55126,231284
"13 Garrison St, Boston, 2116",-71.08,42.34607,6233803,1642980,396219,1246761
"13 Haviland St, Boston, 2115",-71.0884,42.34647,3736016,984664,237460,747204
"13 Haynes St, Boston, 2128",-71.0386,42.36687,443754,116955,28204,88751
"13 Hereford St, Boston, 2115",-71.0869,42.35108,4008522,1056486,254781,801705
"13 Hereford St, Boston, 2115",-71.0869,42.35108,5522720,1963961,307145,1656816
"11 Howell St, Boston, 2125",-71.0573,42.32502,816103,105668,61315,44353
"13-1/2 Howell St, Boston, 2125",-71.0573,42.32503,816103,105668,61315,44353
"13 Knowlton St, Boston, 2127",-71.0498,42.33246,666978,206487,39743,166744
"13-15 Lambert St, Boston, 2119",-71.0909,42.32827,1020846,269054,64884,204170
"13 Marion St #F, Boston, 2131",-71.1205,42.28686,267520,70507,17003,53504
"13 Park St, Boston, 2129",-71.0611,42.37251,1510624,398140,96015,302125
"13 Wendover St, Boston, 2125",-71.0662,42.31844,417414,110013,26530,83483
"13 Wiget St, Boston, 2113",-71.0561,42.364,2080004,371020,147497,223523
"13 Gloucester St #1, Boston, 2115",-71.0849,42.35092,2071662,546007,131674,414333
"13-15 Sagamore St, Boston, 2125",-71.055,42.31331,178686,47095,11357,35738
"251-253 Marlborough St #2, Boston, 2116",-71.0823,42.35197,2960247,780202,188152,592050
"13 Gloucester St #3, Boston, 2115",-71.0849,42.35092,1026198,270464,65224,205240
"130 Appleton St #4C, Boston, 2116",-71.0748,42.34502,1455226,383539,92493,291046
"130 Boston St, Boston, 2125",-71.0591,42.32507,1576019,570434,86788,483646
"130 Bowdoin St, Boston, 2122",-71.0715,42.30344,6592930,1737631,419045,1318586
"130 Chestnut St, Boston, 2108",-71.072,42.35648,2502082,459381,176299,283082
"130 Commonwealth Ave, Boston, 2116",-71.0775,42.35172,12595112,3319566,800543,2519023
"130 Chestnut St, Boston, 2108",-71.072,42.35648,3299753,2818184,41562,2776622
"130 Everett St, Boston, 2128",-71.0331,42.3669,1091420,287654,69370,218284
"128 Fisher Ave, Boston, 2120",-71.1049,42.32784,2304774,607446,146491,460955
"130 Fisher Ave, Boston, 2120",-71.1046,42.32791,2304774,607446,146491,460955
"130-132 Fulton St #20, Boston, 2109",-71.0526,42.36302,533971,140734,33939,106795
"130 Lincoln St #130, Boston, 2111",-71.0582,42.35133,1054282,326391,62821,263570
"130 Myrtle St, Boston, 2114",-71.0689,42.35923,3997359,1053543,254071,799472
"130 Northern Ave, Boston, 2210",-71.0437,42.35133,38589163,10170555,2452722,7717833
"130 Tremont St, Boston, 2111",-71.063,42.3554,7609691,2005609,483670,1521939
"130 Talbot Ave, Boston, 2124",-71.0812,42.293,835664,220247,53114,167133
"130 Talbot Ave, Boston, 2124",-71.0812,42.293,1855062,799407,91110,708297
"130 Train St, Boston, 2122",-71.0533,42.29143,439934,128410,26886,101524
"130 Tremont St, Boston, 2111",-71.063,42.3554,7776964,4264960,303110,3961850
"120-130 Water St, Boston, 2109",-71.0552,42.35798,5025077,1324409,319393,1005016
"1300 Hyde Park Ave, Boston, 2136",-71.1242,42.25425,1206414,331027,75551,255476
"1300 Soldiers Field Rd, Boston, 2135",-71.1378,42.36388,4565843,1119310,297459,821851
"1304-1312 Commonwealth Ave #A, Boston, 2134",-71.1346,42.34889,1746199,460228,110988,349240
"1304-1312 Commonwealth Ave #B, Boston, 2134",-71.1346,42.34889,1746199,460228,110988,349240
"1304-1312 Commonwealth Ave #C, Boston, 2134",-71.1346,42.34889,1746199,460228,110988,349240
"1304-1312 Commonwealth Ave #D, Boston, 2134",-71.1346,42.34889,1746199,460228,110988,349240
"1304-1312 Commonwealth Ave #E, Boston, 2134",-71.1346,42.34889,1746199,460228,110988,349240
"1306 Columbia Rd #4E, Boston, 2127",-71.0396,42.33031,774908,204235,49253,154982
"131 N Beacon St, Boston, 2135",-71.1445,42.35499,3888482,1349032,219171,1129861
"131 New Haven St, Boston, 2132",-71.1667,42.2648,15715,4391,1248,3143
"131 W Newton St, Boston, 2118",-71.077,42.34195,2589666,682532,164598,517934
"131 Park Dr #31, Boston, 2215",-71.0976,42.34149,256786,67679,16321,51358
"163-171 Neponset Ave, Boston, 2122",-71.051,42.29304,1250808,329663,79501,250162
"1318 Commonwealth Ave #21, Boston, 2134",-71.134,42.34855,201521,53113,12808,40305
"10 Edgerly Pl, Boston, 2116",-71.069,42.34925,11019031,2904175,700368,2203807
"132 Bremen St, Boston, 2128",-71.0358,42.37168,963265,298215,57398,240817
"132 Charles St #2, Boston, 2114",-71.0709,42.36068,1892883,498888,120311,378577
"132 Lincoln St #10, Boston, 2111",-71.0582,42.3513,702675,340440,31263,309177
"132 Saint Marys St, Boston, 2215",-71.1063,42.3454,1632266,430200,103746,326454
"1322 Commonwealth Ave, Boston, 2134",-71.1343,42.34843,7184144,1893452,456623,1436829
"1325 Commonwealth Ave #1, Boston, 2134",-71.1353,42.34857,5867230,1109136,410656,698480
"1325 Commonwealth Ave #2, Boston, 2134",-71.1353,42.34857,5867230,1109136,410656,698480
"1325 Commonwealth Ave #21, Boston, 2134",-71.1353,42.34857,5867230,1109136,410656,698480
"1325 Commonwealth Ave #22, Boston, 2134",-71.1353,42.34857,5867230,1109136,410656,698480
"1325 Commonwealth Ave #24, Boston, 2134",-71.1353,42.34857,5867230,1109136,410656,698480
"1325 Commonwealth Ave #25, Boston, 2134",-71.1353,42.34857,5867230,1109136,410656,698480
"1325 Commonwealth Ave #31, Boston, 2134",-71.1353,42.34857,5867230,1109136,410656,698480
"1325 Commonwealth Ave #32, Boston, 2134",-71.1353,42.34857,5867230,1109136,410656,698480
"1325 Commonwealth Ave #34, Boston, 2134",-71.1353,42.34857,5867230,1109136,410656,698480
"1325 Commonwealth Ave #35, Boston, 2134",-71.1353,42.34857,5867230,1109136,410656,698480
"1325 Commonwealth Ave #4, Boston, 2134",-71.1353,42.34857,5867230,1109136,410656,698480
"1325 Commonwealth Ave #41, Boston, 2134",-71.1353,42.34857,5867230,1109136,410656,698480
"1325 Commonwealth Ave #42, Boston, 2134",-71.1353,42.34857,5867230,1109136,410656,698480
"1325 Commonwealth Ave #44, Boston, 2134",-71.1353,42.34857,5867230,1109136,410656,698480
"1325 Commonwealth Ave #45, Boston, 2134",-71.1353,42.34857,5867230,1109136,410656,698480
"1325 Commonwealth Ave #5, Boston, 2134",-71.1353,42.34857,5867230,1109136,410656,698480
"1325 Commonwealth Ave #51, Boston, 2134",-71.1353,42.34857,5867230,1109136,410656,698480
"1325 Commonwealth Ave #52, Boston, 2134",-71.1353,42.34857,5867230,1109136,410656,698480
"1325 Commonwealth Ave #54, Boston, 2134",-71.1353,42.34857,5867230,1109136,410656,698480
"1325 Commonwealth Ave #55, Boston, 2134",-71.1353,42.34857,5867230,1109136,410656,698480
"1325-1329 Dorchester Ave, Boston, 2122",-71.059,42.30555,1515861,399520,96347,303173
"11 Leedsville St, Boston, 2122",-71.0592,42.30518,565842,149133,35964,113169
"5 Leedsville St, Boston, 2122",-71.0591,42.30521,833872,219775,53000,166775
"1326 Columbia Rd #1, Boston, 2127",-71.039,42.33023,291676,103724,16221,87503
"1328-A River St, Boston, 2136",-71.1263,42.25548,205702,54215,13074,41141
"133 Boardman St, Boston, 2128",-71.0128,42.39111,1647969,434338,104744,329594
"133 Boardman St, Boston, 2128",-71.0128,42.39111,741586,195453,47135,148318
"133 Cottage St, Boston, 2128",-71.0338,42.36893,783724,206558,49813,156745
"133 Eutaw St, Boston, 2128",-71.0352,42.38006,912867,282612,54395,228217
"133 Glenville Ave #133, Boston, 2134",-71.1361,42.34905,653805,172316,41555,130761
"405 Commonwealth Ave #4, Boston, 2215",-71.0903,42.34881,707964,186591,44998,141593
"133 Mattapan St, Boston, 2126",-71.0974,42.27959,535157,64252,40642,23610
"133 Newmarket Sq #133, Boston, 2118",-71.0682,42.33045,1647969,672729,84169,588560
"133 Paris St, Boston, 2128",-71.0369,42.37295,887509,233911,56409,177502
"133-135 Saint Alphonsus St, Boston, 2120",-71.1015,42.33292,4191053,2019100,187454,1831646
"133 Seaport Blvd #510, Boston, 2210",-71.0439,42.35097,1167468,307698,74204,233494
"133 Pearl St #1, Boston, 2110",-71.0539,42.35493,1283932,439700,72862,366838
"133-135 Draper St, Boston, 2122",-71.0653,42.30536,231129,60916,14690,46226
"1320-1330 Boylston St, Boston, 2215",-71.0985,42.3443,6872700,1811367,436827,1374540
"12 Kimball St, Boston, 2122",-71.059,42.30439,4967174,680425,369976,310449
"1320-A Dorchester Ave, Boston, 2122",-71.0588,42.30556,4967174,680425,369976,310449
"1322-1324 Dorchester Ave, Boston, 2122",-71.0588,42.30549,4967174,680425,369976,310449
"1326 Dorchester Ave, Boston, 2122",-71.0588,42.30533,4967174,680425,369976,310449
"1334-1342 Dorchester Ave, Boston, 2122",-71.0589,42.30511,4967174,680425,369976,310449
"1344 Dorchester Ave, Boston, 2122",-71.0589,42.30477,4967174,680425,369976,310449
"20 Kimball St, Boston, 2122",-71.0588,42.30446,4967174,680425,369976,310449
"22 Kimball St, Boston, 2122",-71.0587,42.30448,4967174,680425,369976,310449
"28 Kimball St, Boston, 2122",-71.0586,42.30453,4967174,680425,369976,310449
"4 Ellsworth St, Boston, 2122",-71.0589,42.30528,4967174,680425,369976,310449
"7-9 Ellsworth St, Boston, 2122",-71.0589,42.30509,4967174,680425,369976,310449
"11 Ellsworth St, Boston, 2122",-71.0588,42.30508,838210,495270,29598,465672
"134 Chelsea St, Boston, 2128",-71.0351,42.37322,918927,242192,58406,183786
"471-473 Albany St, Boston, 2118",-71.065,42.33966,3233071,1482363,151098,1331265
"1341-1355 Boylston St, Boston, 2215",-71.0993,42.34425,14526783,3828677,923320,2905357
"135-B Bremen St, Boston, 2128",-71.0365,42.37085,1150596,303251,73131,230120
"135 Calumet St #3, Boston, 2120",-71.1032,42.33042,617106,191048,36771,154277
"37 Hastings St #105, Boston, 2132",-71.1564,42.28621,466794,123028,29669,93359
"135 Glenville Ave #135, Boston, 2134",-71.1362,42.34905,653805,214609,37905,176704
"135 Hillside St, Boston, 2120",-71.1056,42.33121,2785397,990528,154909,835619
"135 Hillside St, Boston, 2120",-71.1056,42.33121,3085531,955241,183858,771383
"135 William T Morrissey Blvd, Boston, 2125",-71.0477,42.3145,1.03E+08,15162139,7554912,7607227
"135 Neponset Ave #5, Boston, 2122",-71.052,42.29404,101429,26732,6446,20286
"135 Neponset Ave, Boston, 2122",-71.052,42.29404,4397699,1159057,279517,879540
"135 Orleans St, Boston, 2128",-71.0358,42.37012,1002797,264297,63737,200560
"135 Seaport Blvd #1109, Boston, 2210",-71.0439,42.35097,1995220,1420912,49566,1371346
"135 W 7th St, Boston, 2127",-71.0529,42.33547,891601,234990,56669,178321
"136 Beacon St #10, Boston, 2116",-71.0752,42.35482,4764986,1255859,302861,952998
"136 Newbury St, Boston, 2116",-71.0772,42.35095,8544528,2251995,543089,1708906
"136 Shirley St, Boston, 2119",-71.0683,42.32571,869255,229100,55249,173851
"136 W Canton St, Boston, 2118",-71.0753,42.34312,4384692,1155629,278690,876939
"138 W 8th St, Boston, 2127",-71.0534,42.3348,1191246,574407,53237,521170
"83 Eutaw St #1, Boston, 2128",-71.0363,42.37963,388905,102499,24718,77781
"137 Lasell St, Boston, 2132",-71.1665,42.28922,623975,164454,39659,124795
"137-141 Meridian St #1, Boston, 2128",-71.0389,42.3736,557565,146951,35438,111513
"137 O St, Boston, 2127",-71.0293,42.3334,713917,188160,45376,142784
"137 Paris St, Boston, 2128",-71.0368,42.373,845785,222914,53757,169157
"137-139 Pearl St #M1, Boston, 2110",-71.0538,42.3549,1321029,712992,52477,660515
"137 Peterborough St #19, Boston, 2215",-71.1004,42.34296,754383,199992,47847,152145
"137 South St #2, Boston, 2111",-71.0574,42.35093,806327,175672,54429,121243
"137 W Newton St, Boston, 2118",-71.0775,42.34234,2836861,747683,180310,567373
"16 Nixon St, Boston, 2124",-71.0649,42.29373,424260,86964,29110,57854
"1379 Commonwealth Ave, Boston, 2134",-71.1374,42.34868,2744139,1176729,135278,1041451
"138 Harvard Ave, Boston, 2134",-71.1298,42.34908,3849560,1014589,244677,769912
"138 Newburg St, Boston, 2131",-71.1421,42.2828,606217,159775,38531,121244
"92 W 8th St, Boston, 2127",-71.0546,42.33568,1014297,267328,64468,202860
"94 W 8th St, Boston, 2127",-71.0546,42.33567,1014297,267328,64468,202860
"65 Gove St, Boston, 2128",-71.037,42.37121,316967,83540,20146,63394
"1382-1384 River St, Boston, 2136",-71.1285,42.25445,1088837,336819,64904,271915
"139 Bowdoin St, Boston, 2122",-71.071,42.30362,1265405,326737,81013,245724
"332 Savin Hill Ave, Boston, 2125",-71.0491,42.31244,1908780,590934,113739,477195
"139 Newmarket Sq #139, Boston, 2118",-71.0682,42.33047,572521,156099,35940,120159
"139 Warren Ave, Boston, 2116",-71.075,42.34427,1928941,508392,122603,385789
"139-143 Brighton Ave #2L, Boston, 2134",-71.1311,42.35293,1648232,434408,104761,329647
"139-143 Brighton Ave #2R, Boston, 2134",-71.1311,42.35293,1648232,434408,104761,329647
"139-143 Brighton Ave #3L, Boston, 2134",-71.1311,42.35293,1648232,434408,104761,329647
"139-143 Brighton Ave #3R, Boston, 2134",-71.1311,42.35293,1648232,434408,104761,329647
"139-143 Brighton Ave #A, Boston, 2134",-71.132,42.35284,318192,83863,20224,63639
"139-143 Brighton Ave #B, Boston, 2134",-71.132,42.35284,517062,188756,28334,160422
"139-143 Brighton Ave #D, Boston, 2134",-71.132,42.35284,395817,104322,25158,79164
"8 Kittredge St #13, Boston, 2131",-71.1294,42.28457,392373,103414,24939,78475
"14 Beacon St, Boston, 2108",-71.0622,42.35826,32203929,9911573,1923984,7987589
"14 Billings St, Boston, 2132",-71.1711,42.27199,6768,1784,430,1354
"14 Billings St, Boston, 2132",-71.1711,42.27199,663555,174886,42175,132711
"14 Bowdoin Ave, Boston, 2121",-71.0769,42.30309,812501,205491,52389,153102
"Bowdoin Ave, Boston, 2125",-71.0769,42.30305,66697,17579,4239,13340
"14 Charles River Sq, Boston, 2114",-71.0714,42.35979,1988701,524142,126401,397741
"14 Chestnut St, Boston, 2108",-71.0669,42.3576,5513171,4081718,123544,3958174
"14 Gloucester St, Boston, 2115",-71.0851,42.35092,5406107,2210673,275788,1934885
"14 Grant St, Boston, 2125",-71.0554,42.31815,730782,192605,46448,146157
"14 Grew Hill Rd, Boston, 2131",-71.1298,42.2719,326552,86066,20755,65311
"14 Hereford St #1, Boston, 2115",-71.0867,42.35115,1024479,270011,65115,204896
"14 Hereford St #1, Boston, 2115",-71.0867,42.35115,981092,258577,62358,196219
"14 Holyoke St, Boston, 2116",-71.0779,42.34478,4119924,1085846,261861,823985
"14 Humboldt Pl, Boston, 2127",-71.0576,42.33086,251452,66273,15982,50291
"14 Lindall Pl, Boston, 2114",-71.0693,42.36104,1145043,126759,87884,38875
"14 Mayfair St, Boston, 2119",-71.0901,42.32038,240317,63338,15274,48064
"14 Meehan St, Boston, 2130",-71.106,42.31,567724,195358,32137,163221
"14 Meehan St, Boston, 2130",-71.106,42.31,991043,261199,62990,198209
"14 Newburg St, Boston, 2131",-71.1384,42.28578,583220,153713,37069,116644
"14 Norwell St, Boston, 2121",-71.0781,42.30181,546396,144008,34728,109280
"14 Oakley St, Boston, 2124",-71.0705,42.30158,535590,141160,34042,107118
"12 Parker Hill Ave, Boston, 2120",-71.1094,42.33217,1767153,465750,112319,353431
"14 Pearl St, Boston, 2125",-71.0572,42.31463,4143237,1387775,237815,1149960
"14 Pinckney St, Boston, 2114",-71.0656,42.35878,3619243,953887,230038,723849
"14 Prospect Ave, Boston, 2131",-71.1221,42.28435,964228,215076,64656,150420
"14 Rogers St, Boston, 2127",-71.0556,42.32988,237483,62591,15094,47497
"14 Ronan St, Boston, 2125",-71.0673,42.31131,1130032,381280,64622,316658
"14 Rossmore Rd, Boston, 2130",-71.1078,42.3053,789877,208180,50204,157976
"14 Royal St #2, Boston, 2134",-71.1306,42.35848,456782,120389,29032,91357
"14 Rutland Sq, Boston, 2118",-71.0789,42.34243,4594636,1633921,255530,1378391
"14 Saint Martin St #B, Boston, 2129",-71.068,42.3827,691232,245812,38442,207370
"14 Seager Ct, Boston, 2135",-71.1506,42.35498,385788,74264,26886,47378
"44 Lexington St, Boston, 2128",-71.0379,42.37767,5818149,1533430,369800,1163630
"46 Lexington St, Boston, 2128",-71.0378,42.3777,5818149,1533430,369800,1163630
"14-16 Spaulding St, Boston, 2122",-71.0548,42.29239,941696,248194,59854,188340
"14 Torrey St #1, Boston, 2124",-71.0716,42.28763,185612,48920,11797,37123
"14 Torrey St #2, Boston, 2124",-71.0717,42.28753,371224,97839,23594,74245
"14 Wadsworth St, Boston, 2134",-71.1262,42.35517,727180,182314,47025,135289
"14 Walnut St, Boston, 2108",-71.066,42.35791,10319044,2719686,655877,2063809
"14 Willis St, Boston, 2125",-71.0599,42.31789,707100,186363,44943,141420
"14 Wood St #A, Boston, 2129",-71.0647,42.3759,730782,351988,32692,319296
"14-16 Nazing St, Boston, 2121",-71.0858,42.30663,785871,207123,49949,157174
"14 Pearl St, Boston, 2129",-71.0647,42.3784,1738444,458184,110495,347689
"16 Pearl St, Boston, 2129",-71.0647,42.37848,1181945,311513,75124,236389
"14 Bolster St #2, Boston, 2130",-71.1062,42.32205,836755,220535,53184,167351
"14 Commonwealth Ct #5, Boston, 2135",-71.1406,42.34642,344182,90713,21876,68837
"140 Callender St, Boston, 2124",-71.0846,42.28793,2083504,645026,124150,520876
"140 Callender St, Boston, 2124",-71.0846,42.28793,994350,262070,63200,198870
"140 Kittredge St #1, Boston, 2131",-71.1308,42.28066,369020,63288,26386,36902
"1 Linden St, Boston, 2134",-71.1315,42.35606,3152991,831001,200403,630598
"140 Mount Vernon St #4, Boston, 2108",-71.072,42.35742,1413633,372577,89850,282727
"140 Wachusett St, Boston, 2130",-71.1161,42.29411,1365460,359880,86788,273092
"1400-1406 Columbia Rd, Boston, 2127",-71.044,42.33058,1940302,176483,152229,24254
"1408 Centre St, Boston, 2131",-71.1361,42.29414,647416,170633,41149,129484
"141 Arlington St, Boston, 2135",-71.1584,42.35274,1428993,399331,113533,285798
"139-143 Brighton Ave #C, Boston, 2134",-71.132,42.35284,366040,117754,21428,96326
"141 Chelsea St, Boston, 2128",-71.0341,42.37391,843209,222236,53594,168642
"141 Chiswick Rd #1B, Boston, 2135",-71.1539,42.341,359021,94624,22819,71805
"141 D St, Boston, 2127",-71.054,42.33605,184643,48664,11735,36929
"141 Dorchester Ave #R103, Boston, 2127",-71.0572,42.34189,418381,129526,24930,104596
"141 High St #3, Boston, 2129",-71.0669,42.3788,584625,154083,37158,116925
"141 Hillside St, Boston, 2120",-71.1062,42.33128,2136132,562999,135772,427227
"141-143 Norfolk St, Boston, 2124",-71.078,42.28801,275383,72580,17503,55077
"141 W Canton St, Boston, 2118",-71.0744,42.34215,2910332,767047,184980,582067
"1411-1413 Dorchester Ave, Boston, 2122",-71.0596,42.30295,515392,135837,32758,103079
"1412 Commonwealth Ave #15, Boston, 2135",-71.1399,42.3484,196818,51873,12509,39364
"14-16 Derne St, Boston, 2114",-71.0634,42.35953,4502488,969955,304881,665074
"142 Bigelow St #201, Boston, 2135",-71.1655,42.35625,834829,220027,53061,166966
"142-144 Lincoln St, Boston, 2135",-71.1406,42.35805,796786,246674,47478,199196
"142 Prince St, Boston, 2113",-71.0577,42.36668,1751132,461528,111301,350227
"142 W Concord St, Boston, 2118",-71.0774,42.33973,2154427,567821,136935,430886
"142 Commercial St #202, Boston, 2109",-71.0523,42.36246,808863,213184,51411,161773
"1421-1431 Washington St, Boston, 2118",-71.0706,42.34095,12126890,6545184,481739,6063445
"143 Boston St, Boston, 2125",-71.0595,42.32481,916958,241673,58281,183392
"143 Everett St, Boston, 2128",-71.0329,42.36659,651941,171826,41437,130389
"143 London St, Boston, 2128",-71.0378,42.37423,909516,121379,68021,53358
"143 N St, Boston, 2127",-71.0314,42.33347,1210748,319104,76954,242150
"143 P St, Boston, 2127",-71.0272,42.33325,1433015,773434,56926,716508
"143 Summer St, Boston, 2136",-71.1247,42.2613,470848,124097,29927,94170
"143 Worcester St, Boston, 2118",-71.0799,42.34129,2717892,948216,152735,795481
"143-145 Meridian St, Boston, 2128",-71.0389,42.37379,1506926,535885,83807,452078
"1430 Columbia Rd, Boston, 2127",-71.0428,42.33059,977871,302736,58268,244468
"1432-1440 Commonwealth Ave, Boston, 2135",-71.1403,42.34824,1885895,670652,104883,565769
"1435 Centre St, Boston, 2132",-71.1374,42.29341,1267063,333947,80534,253413
"144 Commonwealth Ave #4, Boston, 2116",-71.0782,42.3522,642818,169421,40857,128564
"144 Warren Ave #2, Boston, 2116",-71.0752,42.34411,5432084,2089640,288475,1801165
"144 W Canton St #1, Boston, 2118",-71.0753,42.34312,4047408,694523,289377,405146
"1448-1454 Dorchester Ave, Boston, 2122",-71.0598,42.30123,2130425,757611,118483,639128
"1 New Heath St, Boston, 2130",-71.0965,42.32629,1,0,0,0
"145 Pinckney St #628, Boston, 2114",-71.0722,42.3588,854452,303856,47520,256336
"145 Pinckney St #226, Boston, 2114",-71.0718,42.3589,893518,235495,56791,178704
"145-147 Princeton St, Boston, 2128",-71.0342,42.37809,2015819,624072,120117,503955
"145 Sutherland Rd, Boston, 2135",-71.1474,42.34063,2417202,637077,153636,483441
"145 Worcester St, Boston, 2118",-71.0799,42.34131,2978116,784912,189288,595624
"145 Wrentham St, Boston, 2124",-71.0573,42.28871,112493,29649,7150,22499
"1457 Tremont St, Boston, 2120",-71.0972,42.33187,28076491,19303673,757154,18546519
"146 Athens St #1, Boston, 2127",-71.0527,42.34072,1234800,439113,68673,370440
"146 Boston St, Boston, 2125",-71.0594,42.32457,1250808,329663,79501,250162
"146 Commonwealth Ave, Boston, 2116",-71.0782,42.35219,14125453,3722902,897811,2825091
"146 W Newton St, Boston, 2118",-71.0774,42.34214,7415863,1954524,471351,1483173
"146 Bremen St, Boston, 2128",-71.0355,42.37196,1541224,406204,97959,308245
"148 Bremen St, Boston, 2128",-71.0354,42.372,1541224,406204,97959,308245
"146-148A Norfolk St, Boston, 2124",-71.0781,42.28765,349239,92045,22197,69848
"150-154 Norfolk St, Boston, 2124",-71.0782,42.28754,349239,92045,22197,69848
"1465 Blue Hill Ave #2, Boston, 2126",-71.0938,42.27417,95377,27838,5828,22010
"10 Faxon St, Boston, 2119",-71.0978,42.33193,743182,196644,47169,149475
"147 Boston St, Boston, 2125",-71.0596,42.32467,1365972,360015,86820,273195
"147 Centre St, Boston, 2124",-71.0661,42.29177,574042,151294,36485,114809
"147-149 Charles St, Boston, 2114",-71.0707,42.3604,9770105,2575007,620986,1954021
"147 Cottage St, Boston, 2128",-71.0333,42.3694,1267871,184766,93479,91287
"147-147A Dorchester St, Boston, 2127",-71.0478,42.33456,563465,148506,35813,112693
"147 Fulton St, Boston, 2109",-71.0524,42.36289,2403177,633381,152745,480636
"147-149 Meridian St, Boston, 2128",-71.0389,42.37391,709308,186945,45083,141862
"148 Beacon St #2, Boston, 2116",-71.0756,42.3547,5722672,2298468,295532,2002936
"148 Bellevue St, Boston, 2132",-71.1522,42.28004,770612,203102,48979,154123
"148 Falcon St, Boston, 2128",-71.0319,42.38195,697053,167155,45733,121422
"148-150 N St #3, Boston, 2127",-71.0311,42.33337,832261,295965,46286,249679
"148 State St, Boston, 2109",-71.0543,42.35936,20418454,5381485,1297794,4083691
"148 Summit St, Boston, 2136",-71.1171,42.2477,595623,156982,37857,119125
"148-150 Pleasant St, Boston, 2125",-71.0593,42.31077,2669856,512706,186176,326530
"152 Pleasant St, Boston, 2125",-71.0594,42.3106,2669856,512706,186176,326530
"1480 Tremont St, Boston, 2120",-71.0984,42.33193,1,0,0,0
"1486 Tremont St, Boston, 2120",-71.0986,42.332,3844823,1013341,244376,768965
"1480 Commonwealth Ave #14, Boston, 2135",-71.1409,42.34819,321088,84626,20408,64218
"1486 Columbia Rd, Boston, 2127",-71.0411,42.33062,881170,232241,56007,176234
"149 Beacon St #2, Boston, 2116",-71.0748,42.35474,1202071,316818,76403,240415
"149 Endicott St, Boston, 2113",-71.0573,42.36515,3150660,830387,200255,630132
"149 L St, Boston, 2127",-71.0354,42.33256,514255,109500,34933,74567
"149 W 8th St, Boston, 2127",-71.0533,42.33445,1267871,334160,80585,253575
"149 W Newton St, Boston, 2118",-71.0775,42.34245,2849819,1723431,97215,1626216
"149-151 Pearl St, Boston, 2110",-71.0538,42.35482,6002810,1582099,381537,1200562
"286 Walnut Ave #2, Boston, 2119",-71.0914,42.31713,401400,105792,25512,80280
"500 Atlantic Ave #14A, Boston, 2210",-71.0535,42.35373,1383913,364744,87961,276783
"14-R Lincoln St, Boston, 2135",-71.1468,42.35886,1091420,337889,65034,272855
"13-15 Academy Hill Rd, Boston, 2135",-71.1529,42.3487,403521,106352,25647,80705
"15 Henley St #A, Boston, 2129",-71.0619,42.37288,917938,567796,30219,537577
"15 Aldrich St, Boston, 2131",-71.1398,42.28576,685810,180751,43589,137162
"15-19 Bartlett Pl, Boston, 2113",-71.0562,42.36426,2061571,1670851,33721,1637130
"15 Birch St, Boston, 2131",-71.1303,42.28681,996369,730083,22982,707101